"USAF","WBAN","NAME","CTRY","STATE","ICAO","LAT","LON","ELEV","BEGIN","END"
10010,99999,"JAN MAYEN(NOR-NAVY)","NO","","ENJA",70.933,-8.667,9,1931,2015
10060,99999,"EDGEOYA","NO","","",78.25,22.817,14,1973,2015
10070,99999,"NY-ALESUND","SV","","",78.917,11.933,7.7,1973,2015
10080,99999,"LONGYEAR","SV","","ENSB",78.246,15.466,26.8,1975,2015
10090,99999,"KARL XII OYA","SV","","",80.65,25,5,1955,2015
10100,99999,"ANDOYA","NO","","ENAN",69.293,16.144,13.1,1931,2015
10150,99999,"HEKKINGEN FYR","NO","","",69.6,17.833,14,1980,2015
10170,99999,"AKSELOYA","SV","","",77.683,14.783,6,1973,2015
10230,99999,"BARDUFOSS","NO","","ENDU",69.056,18.54,76.8,1940,2015
10240,99999,"PYRAMIDEN","NO","","",78.65,16.367,20,1973,2015
10250,99999,"TROMSO","NO","","ENTC",69.683,18.919,9.4,1973,2015
10280,99999,"BJORNOYA ISLAND","NO","","ENBJ",74.517,19.017,18,1931,2015
10300,99999,"KISTEFJELL","NO","","",69.283,18.133,982,1951,2015
10330,99999,"TORSVAG FYR","NO","","",70.25,19.5,24,1973,2015
10350,99999,"LYNGEN GJERDVASSBU","NO","","",69.567,20.1,710,1973,2015
10370,99999,"SKIBOTN 2","NO","","",69.383,20.283,20,1973,2015
10430,99999,"ROGNSUNDET","NO","","",70.417,22.817,10,1973,2015
10450,99999,"NORDSTRAUM I KVAENANGEN","NO","","",69.833,21.883,6,1973,2015
10460,99999,"SORKJOSEN","NO","","ENSR",69.787,20.959,4.9,1975,2015
10470,99999,"KAUTOKEINO II","NO","","ENKA",69.017,23.067,307,1973,2015
10490,99999,"ALTA","NO","","ENAT",69.976,23.372,2.7,1973,2015
10520,99999,"HAMMERFEST AP","NO","","ENHF",70.683,23.683,81,1940,2015
10550,99999,"FRUHOLMEN FYR","NO","","",71.1,23.983,14.2,1931,2015
10570,99999,"CUOVDDATMOHKKI","NO","","",69.367,24.433,286,1973,2015
10590,99999,"BANAK","NO","","ENNA",70.069,24.973,7.6,1973,2015
10620,99999,"HOPEN ISLAND","NO","","ENHO",76.5,25.067,10,1955,2015
10650,99999,"KARASJOK","NO","","",69.467,25.517,133,1973,2015
10680,99999,"HONNINGSVAG/VALAN","NO","","ENHV",71.017,25.983,14,1980,2015
10740,99999,"MEHAMN","NO","","ENMH",71.033,27.833,13,1975,2015
10780,99999,"SLETTNES FYR","NO","","",71.1,28.233,10,1973,2015
10820,99999,"NYRUD","NO","","",69.15,29.25,56,1973,2015
10830,99999,"BERLEVAG","NO","","ENBV",70.867,29.033,13,1975,2015
10840,99999,"PASVIK","NO","","",69.45,30.033,27,1973,2015
10880,99999,"VADSO","NO","","ENVD",70.067,29.85,39,1975,2015
10890,99999,"HOYBUKTMOEN","NO","","ENKR",69.726,29.893,86.3,1940,2015
10920,99999,"MAKKAUR FYR","NO","","",70.7,30.083,9,1973,2015
10980,99999,"VARDO","NO","","",70.367,31.1,15,1931,2015
11020,99999,"SKLINNA FYR","NO","","",65.2,11,16,1975,2015
11050,99999,"ROTVAER","NO","","",68.367,15.95,8,1973,2015
11120,99999,"BRONNOY","NO","","ENBN",65.461,12.218,7.6,1973,2015
11150,99999,"MYKEN","NO","","",66.767,12.483,13,1973,2015
11160,99999,"STOKKA","NO","","ENST",65.95,12.467,17.1,1973,2015
11210,99999,"SOLVAER III","NO","","",66.367,12.617,10,1973,2015
11410,99999,"LEKNES","NO","","ENLK",68.15,13.617,26,1973,2015
11460,99999,"SKAMDAL","NO","","",66.233,13.883,5,1973,2015
11470,99999,"VARNTRESK","NO","","",65.833,14.183,406,1940,2015
11500,99999,"HJARTASEN","NO","","",66.5,14.95,251,1973,2015
11510,99999,"MOIRANA","NO","","ENRA",66.367,14.3,70,1973,2015
11520,99999,"BODO","NO","","ENBO",67.269,14.365,12.8,1940,2015
11600,99999,"SKROVA FYR","NO","","",68.15,14.65,11,1973,2015
11610,99999,"SVOLVAER/HELLE","NO","","ENSH",68.25,14.667,9,1973,2015
11620,99999,"STORKMARKNES/SKAGEN","NO","","ENSK",68.583,15.017,3,1973,2015
11830,99999,"EVENES","NO","","ENEV",68.491,16.678,25.6,1975,2015
11990,99999,"SIHCCAJAVRI","NO","","",68.75,23.533,382,1949,2015
12030,99999,"KRAKENES","NO","","",62.033,4.983,41,1931,2015
12050,99999,"SVINOY LH","NO","","",62.333,5.267,37.2,1973,2015
12100,99999,"VIGRA","NO","","ENAL",62.56,6.11,21,1973,2015
12120,99999,"ONA II","NO","","",62.867,6.533,15,1955,2015
12170,99999,"ARO","NO","","ENML",62.745,7.263,3,1976,2015
12180,99999,"TAFJORD","NO","","",62.233,7.417,17,1973,2015
12230,99999,"KVERNBERGET","NO","","ENKB",63.112,7.825,62.2,1973,2015
12250,99999,"VEIHOLMEN","NO","","",63.517,7.95,5,1973,2015
12270,99999,"INNERDALEN","NO","","",62.717,8.783,405,1973,2015
12280,99999,"SULA","NO","","",63.85,8.467,6,1973,2015
12300,99999,"BJORLI","NO","","",62.267,8.2,579,1973,2015
12320,99999,"VINJEORA II","NO","","",62.45,7.85,67,1973,2015
12380,99999,"FOKSTUA II","NO","","",62.117,9.283,974,1973,2015
12410,99999,"ORLAND","NO","","ENOL",63.699,9.604,8.5,1973,2015
12450,99999,"OPPDAL-SETER","NO","","",62.6,9.667,606,1976,2015
12590,99999,"BUHOLMRASA LH","NO","","",64.4,10.45,18.4,1973,2015
12620,99999,"NORDOYAN FYR","NO","","",64.8,10.55,33,1928,2015
12650,99999,"TYNSET-HANSMOEN","NO","","",62.267,10.733,482.3,1949,2015
12710,99999,"VAERNES","NO","","ENVA",63.458,10.94,17.1,1940,2015
12770,99999,"STEINKJER","NO","","",64.017,11.45,80,1973,2015
12880,99999,"ROROS","NO","","",62.567,11.383,630,1973,2015
12900,99999,"NAMSOS AIRPORT","NO","","ENNM",64.467,11.583,2,1973,2015
12980,99999,"NORDLI-HOLAND","NO","","",64.45,13.717,433,1973,2015
13100,99999,"FLORO","NO","","ENFL",61.584,5.025,11.3,1980,2015
13110,99999,"FLESLAND","NO","","ENBR",60.293,5.218,51.8,1973,2015
13170,99999,"BERGEN/FLORIDA","NO","","",60.383,5.333,36,1973,2015
13190,99999,"TAKLE","NO","","",61.033,5.383,38,1973,2015
13210,99999,"STRYN","NO","","",61.9,6.55,208,1973,2015
13220,99999,"FORDE-TEFRE","NO","","",61.467,5.917,64,1973,2015
13360,99999,"BULKEN","NO","","",60.65,6.217,328,1973,2015
13420,99999,"ULLENSVANG","NO","","",60.317,6.65,12,1973,2015
13440,99999,"MJOLFJELL","NO","","",60.7,6.95,695,1973,2015
13450,99999,"KLEVAVATNET","NO","","",60.717,7.217,960,1973,2015
13550,99999,"LAERDAL IV","NO","","",61.1,7.5,5,1973,2015
13570,99999,"HOLLEKOLTEN","NO","","",60.867,8.517,804.2,1973,2015
13590,99999,"GEILO-OLDEBRATEN","NO","","",60.533,8.2,773,1973,2015
13600,99999,"BRATA-SLETTOM","NO","","",61.9,7.9,664,1973,2015
13610,99999,"GROTLI III","NO","","",62.017,7.667,872,1973,2015
13640,99999,"FILEFJELL","NO","","",61.183,8.117,955.1,1949,2015
13650,99999,"BEITOSTOLEN II","NO","","",65.25,8.917,965,1973,2015
13660,99999,"SOGNEFJELL","NO","","",61.567,8,1413,1979,2015
13700,99999,"SKABU","NO","","",61.517,9.4,928,1973,2015
13710,99999,"LOKEN I VOLBU","NO","","",61.117,9.067,521,1973,2015
13730,99999,"NESBYEN-TODOKK","NO","","",60.567,9.133,166,1973,2015
13750,99999,"KVITFJELL","NO","","",61.467,10.133,1028,1973,2015
13760,99999,"GULSVIK II","NO","","",60.383,9.6,142,1973,2015
13780,99999,"LILLEHAMMER-SAETHERENGEN","NO","","",61.1,10.467,239,1973,2015
13820,99999,"KISE","NO","","",60.767,10.8,128,1973,2015
13830,99999,"EVENSTAD-OVERENGET","NO","","",61.4,11.15,255,1973,2015
13840,99999,"GARDERMOEN","NO","","ENGM",60.194,11.1,207.6,1940,2015
13890,99999,"RENA AP","NO","","",61.183,11.367,255.7,1973,2015
13930,99999,"DREVSJO","NO","","",61.883,12.033,673.5,1973,2015
13970,99999,"TRYSIL VEGSTASJON","NO","","",61.3,12.267,361.4,1973,2015
14030,99999,"UTSIRA FYR","NO","","",59.3,4.867,56.3,1928,2015
14060,99999,"SLATTEROY FYR","NO","","",59.917,5.067,16,1973,2015
14120,99999,"OBRESTAD","NO","","",58.65,5.567,26,1973,2015
14150,99999,"SOLA","NO","","ENZV",58.877,5.638,8.8,1940,2015
14170,99999,"NEDRE VATS","NO","","",59.483,5.75,65,1973,2015
14180,99999,"AUSTEVOLL","NO","","",60.017,5.2,32,1973,2015
14240,99999,"SAUDA","NO","","",59.65,6.367,6,1973,2015
14250,99999,"EIK HOVE","NO","","",58.517,6.517,66,1973,2015
14270,99999,"LISTA FYR","NO","","",58.117,6.567,14,1928,2015
14300,99999,"MANDAL II","NO","","",58.017,7.45,138,1973,2015
14330,99999,"MIDTLAEGER","NO","","",59.833,6.983,1081,1973,2015
14360,99999,"LINDESNES FYR","NO","","",57.983,7.05,13,1973,2015
14390,99999,"KONSMO-HOYLAND","NO","","",58.25,7.317,260,1973,2015
14400,99999,"BLASJO","NO","","",59.333,6.867,1104.6,1973,2015
14420,99999,"BYGLANDSFJORD","NO","","",58.667,7.8,211,1973,2015
14480,99999,"OKSOY FYR","NO","","",58.067,8.05,8,1949,2015
14500,99999,"MOSSTRAND II","NO","","",59.833,8.183,977,1973,2015
14520,99999,"KJEVIK","NO","","ENCN",58.204,8.085,17.4,1940,2015
14550,99999,"TVEITSUND","NO","","",59.033,8.517,252,1973,2015
14590,99999,"NELAUG","NO","","",58.65,8.633,142,1973,2015
14650,99999,"TORUNGEN FYR","NO","","",58.4,8.783,15,1973,2015
14670,99999,"LYNGOR FYR","NO","","",58.633,9.15,5,1973,2015
14700,99999,"GVARV","NO","","",59.383,9.2,93,1973,2015
14760,99999,"JOMFRULAND FYR","NO","","",58.85,9.55,5,1973,2015
14770,99999,"KONNERUD","NO","","",59.717,10.15,193,1973,2015
14780,99999,"SVENNER LH","NO","","",58.967,10.15,15,1973,2015
14810,99999,"MELSOM","NO","","",59.233,10.35,26,1974,2015
14820,99999,"FERDER LH","NO","","",59.033,10.517,7.7,1931,2015
14840,99999,"AURSKOG","NO","","",59.917,11.583,128,1973,2015
14880,99999,"HAKADAL","NO","","",60.117,10.833,170,1940,2015
14900,99999,"TRYVANNSHOGDA","NO","","",59.983,10.683,528,1973,2015
14920,99999,"OSLO-BLINDERN","NO","","",59.95,10.717,97,1973,2015
14940,99999,"RYGGE","NO","","ENRY",59.379,10.786,53,1973,2015
20200,99999,"KATTERJAKK","SW","","",68.417,18.167,517,1977,2015
20360,99999,"NIKKALUOKTA","SW","","",67.85,19.033,468,1977,2015
20440,99999,"KIRUNA","SW","","ESNQ",67.822,20.337,459.6,1977,2015
20490,99999,"GALLIVARE","SW","","ESNG",67.132,20.815,313,1979,2015
20540,99999,"NEDRE SOPPERO","SW","","",68.05,21.75,360,1955,2015
20550,99999,"NAIMAKKA","SW","","",68.683,21.533,402,1973,2015
20640,99999,"SAITTAROVA","SW","","",67.333,22.233,240,1973,2015
20810,99999,"KARESUANDO","SW","","",68.45,22.45,330,1955,2015
20950,99999,"PAJALA","SW","","",67.2,23.383,171,1955,2015
21010,99999,"HEMAVAN","SW","","ESUT",65.806,15.083,458.1,1973,2015
21020,99999,"STEKENJOKK","SW","","",65.1,14.517,1036,1958,2015
21190,99999,"KVIKKJOKK ARRENJARKA","SW","","",66.883,18.017,320,1973,2015
21230,99999,"JAKKVIK","SW","","",66.317,17.1,552,1973,2015
21240,99999,"ARJEPLOG","SW","","",66.05,17.833,432,1977,2015
21260,99999,"GUNNARN","SW","","",65.017,17.7,251,1973,2015
21300,99999,"ROPARUDDEN","SW","","",66.483,16.417,481,1973,2015
21350,99999,"BURESJON","SW","","",65.567,17.867,393,1973,2015
21410,99999,"TJAKAAPE","SW","","",66.317,19.217,582,1973,2015
21470,99999,"MALA-BRANNAN","SW","","",65.15,18.6,363,1973,2015
21510,99999,"JOKKMOKK FPL","SW","","",66.483,20.167,275,1973,2015
21540,99999,"VIDSEL","SW","","ESPE",65.875,20.15,182,1977,2015
21610,99999,"NATTAVAARA","SW","","",66.75,20.933,327,1973,2015
21710,99999,"BODEN","SW","","",65.817,21.633,18,1979,2015
21860,99999,"KALLAX","SW","","ESPA",65.544,22.122,19.8,1977,2015
21880,99999,"RODKALLEN","SW","","",65.317,22.383,2,1973,2015
22070,99999,"STORLIEN-VISJOVALEN A","SW","","",63.283,12.117,583,1973,2015
22090,99999,"SYLARNA","SW","","",63.05,12.283,1030,1973,2015
22160,99999,"MATTMAR","SW","","",63.3,13.883,365,1973,2015
22260,99999,"OSTERSUND","SW","","ESNZ",63.2,14.5,376,1935,2015
22300,99999,"GUBBHOGEN","SW","","",64.217,15.55,310,1973,2015
22360,99999,"HALLHAXASEN","SW","","",63.767,15.333,376,1977,2015
22420,99999,"HOTING","SW","","",64.083,16.233,241,1973,2015
22430,99999,"JUNSELE","SW","","",63.683,16.95,214,1973,2015
22470,99999,"KRANGEDE","SW","","",63.15,16.167,184,1973,2015
22540,99999,"ASELE","SW","","",64.167,17.317,308,1977,2015
22590,99999,"KRAMFORS SOLLEFTEA","SW","","ESNK",63.049,17.769,10.4,1977,2015
22600,99999,"VASTMARKUM","SW","","",63.133,18.25,143,1973,2015
22610,99999,"LYCKSELE","SW","","",64.55,18.717,211,1973,2015
22670,99999,"ORNSKOLDSVIK","SW","","ESNO",63.408,18.99,107.9,1979,2015
22840,99999,"JARNASKLUBB","SW","","",63.433,19.683,7,1973,2015
22860,99999,"UMEA","SW","","ESNU",63.792,20.283,7.3,1977,2015
22930,99999,"SKELLEFTEA","SW","","ESNS",64.625,21.077,47.9,1979,2015
23070,99999,"IDRE FJALL","SW","","",61.883,12.85,869,1973,2015
23210,99999,"ALVDALEN","SW","","",61.25,14.033,253,1973,2015
23250,99999,"KLOVSJOHOJDEN","SW","","",62.5,14.15,803,1973,2015
23290,99999,"HAMRA","SW","","",61.667,15,455,1973,2015
23370,99999,"NORRHOG","SW","","",62.267,15.667,320,1973,2015
23430,99999,"TORPSHAMMAR","SW","","",62.5,16.283,100,1973,2015
23660,99999,"SUNDSVALL HARNOSAND","SW","","ESNN",62.528,17.444,4.9,1977,2015
23820,99999,"LUNGO","SW","","",62.65,18.1,18,1973,2015
24170,99999,"PALGRUNDEN","SW","","",58.75,13.15,50,1978,2015
24180,99999,"KARLSTAD","SW","","ESOK",59.445,13.337,107.3,1935,2015
24350,99999,"BORLANGE","SW","","ESSD",60.422,15.515,153.3,1979,2015
24430,99999,"ENKOPING","SW","","",59.65,17.117,26,1979,2015
24460,99999,"VASTERAS","SW","","ESOW",59.589,16.634,6.4,1977,2015
24580,99999,"UPPSALA","SW","","ESCM",59.897,17.589,20.7,1935,2015
24600,99999,"ARLANDA","SW","","ESSA",59.652,17.919,41.8,1977,2015
24640,99999,"BROMMA","SW","","ESSB",59.354,17.942,14.3,1931,2015
24960,99999,"SVENSKA HOGARNA","SW","","",59.45,19.5,12,1977,2015
25010,99999,"VADEROARNA","SW","","",58.583,11.067,24,1977,2015
25120,99999,"SAVE","SW","","ESGP",57.775,11.87,18,1935,2015
25140,99999,"ARVIDSJAUR","SW","","ESNX",65.59,19.282,379.5,1977,2015
25180,99999,"NIDINGEN","SW","","",57.3,11.9,2,1973,2015
25200,99999,"SATENAS","SW","","ESIB",58.426,12.714,55.2,1977,2015
25210,99999,"BERGARUD","SW","","",58.6,12.417,55,1977,2015
25260,99999,"LANDVETTER","SW","","ESGG",57.663,12.28,154.2,1977,2015
25360,99999,"RANGEDALA","SW","","",57.783,13.167,299,1977,2015
25440,99999,"KARLSBORG","SW","","",58.517,14.517,94,1977,2015
25500,99999,"JONKOPING","SW","","ESGJ",57.758,14.069,225.9,1931,2015
25560,99999,"HAGSHULT","SW","","ESMV",57.292,14.137,169.5,1977,2015
25620,99999,"MALMEN","SW","","ESCF",58.402,15.526,93.9,1977,2015
25650,99999,"HULTSFRED","SW","","ESSF",57.526,15.823,111.6,1979,2015
25660,99999,"MALILLA","SW","","",57.4,15.817,98,1973,2015
25700,99999,"NORRKOPING/BRAVALLA","SW","","",58.617,16.117,33,1977,2015
25710,99999,"KUNGSANGEN","SW","","ESSP",58.586,16.251,9.8,1977,2015
25900,99999,"VISBY","SW","","ESSV",57.663,18.346,50,1931,2015
26040,99999,"HALMSTAD","SW","","ESMT",56.691,12.82,30.8,1977,2015
26070,99999,"ANGELHOLM/BARKAKRA","SW","","ESDB",56.283,12.083,18,1977,2015
26160,99999,"FALSTERBO","SW","","",55.383,12.817,5,1977,2015
26220,99999,"LJUNGBY","SW","","",56.85,13.883,148,1977,2015
26350,99999,"MALMO","SW","","",55.567,13.067,21,1935,2015
26360,99999,"STURUP","SW","","ESMS",55.53,13.372,71.9,1977,2015
26410,99999,"KRONOBERG","SW","","ESMX",56.929,14.728,185.9,1979,2015
26510,99999,"KRISTIANSTAD","SW","","ESMK",55.922,14.086,23.2,1979,2015
26640,99999,"RONNEBY","SW","","ESDF",56.267,15.265,58.2,1977,2015
26720,99999,"KALMAR","SW","","ESMQ",56.686,16.288,5.2,1935,2015
28010,99999,"ENONTEKIO KILPISJARVI","FI","","",69.05,20.783,482.7,1979,2015
28050,99999,"UTSJOKI KEVO","FI","","",69.75,27,106.3,1973,2015
28070,99999,"IVALO","FI","","EFIV",68.607,27.405,146.6,1952,2015
28230,99999,"MUONIO ALAMUONIO","FI","","",67.967,23.683,252.6,1973,2015
28360,99999,"SODANKYLA","FI","","EFSO",67.395,26.619,183.5,1917,2015
28440,99999,"PELLO CENTRE","FI","","EFPE",66.767,23.967,85.9,1973,2015
28450,99999,"ROVANIEMI","FI","","EFRO",66.565,25.83,196.6,1973,2015
28640,99999,"KEMI TORNIO","FI","","EFKE",65.782,24.599,18.6,1952,2015
28690,99999,"KUUSAMO","FI","","EFKS",65.988,29.239,264,1909,2015
28740,99999,"HAILUOTO ISLAND","FI","","EFHL",65.033,24.8,6,1973,2015
28750,99999,"OULU","FI","","EFOU",64.93,25.355,14.3,1906,2015
28970,99999,"KAJAANI","FI","","EFKI",64.285,27.692,147.2,1916,2015
29030,99999,"KRUUNUPYY","FI","","EFKK",63.721,23.143,25.3,1960,2015
29070,99999,"KALAJOKI ULKOKALLA","FI","","",64.333,23.45,5,1901,2015
29100,99999,"MUSTASAARI VALASSAARET","FI","","",63.433,21.067,11,1973,2015
29110,99999,"VAASA","FI","","EFVA",63.051,21.762,5.8,1917,2015
29130,99999,"KAUHAVA","FI","","EFKA",63.127,23.051,46,1973,2015
29150,99999,"VIITASAARI","FI","","EFVI",63.083,25.867,132,1973,2015
29170,99999,"KUOPIO","FI","","EFKU",63.007,27.798,98.5,1906,2015
29190,99999,"LAPPEENRANTA HIEKKAPAKKA","FI","","",61.2,28.467,77,1973,2015
29240,99999,"AHTARI MYLLYMAKI","FI","","EFHT",62.533,24.217,159.7,1973,2015
29290,99999,"JOENSUU","FI","","EFJO",62.663,29.608,121.3,1952,2015
29350,99999,"JYVASKYLA","FI","","EFJY",62.399,25.678,139.9,1917,2015
29420,99999,"KANKAANPAA NIINISALO PUOLVOIM","FI","","",61.833,22.467,124.8,1952,2015
29430,99999,"TAMPERE SIILINKARI","FI","","",61.517,23.75,98,1973,2015
29440,99999,"TAMPERE PIRKKALA","FI","","EFTP",61.414,23.604,118.9,1906,2015
29450,99999,"HALLI","FI","","EFHA",61.856,24.787,146,1973,2015
29470,99999,"MIKKELI","FI","","EFMI",61.687,27.202,100.3,1973,2015
29490,99999,"SOMERO SALKOLA","FI","","",60.65,23.8,143,1973,2015
29500,99999,"PARAINEN FAGERHOLM","FI","","",60.117,21.7,4.5,1901,2015
29520,99999,"PORI","FI","","EFPO",61.462,21.8,13.4,1952,2015
29580,99999,"LAPPEENRANTA","FI","","EFLP",61.045,28.144,106.4,1973,2015
29630,99999,"JOKIOINEN","FI","","",60.817,23.5,103,1957,2015
29650,99999,"LAHTI LAUNE","FI","","",60.967,25.633,78.7,1973,2015
29660,99999,"UTTI","FI","","EFUT",60.896,26.938,103.3,1973,2015
29700,99999,"MARIEHAMN","FI","","EFMA",60.122,19.898,5.2,1917,2015
29720,99999,"TURKU","FI","","EFTU",60.514,22.263,49.1,1901,2015
29740,99999,"HELSINKI VANTAA","FI","","EFHK",60.317,24.963,54.6,1952,2015
29750,99999,"HELSINKI MALMI","FI","","EFHF",60.255,25.043,17.4,1917,2015
29760,99999,"KOTKA RANKKI","FI","","",60.383,26.967,13.1,1952,2015
29800,99999,"LEMLAND NYHAMN","FI","","",59.967,19.95,10,1973,2015
29810,99999,"PARAINEN UTO","FI","","",59.783,21.367,6.8,1901,2015
29820,99999,"HANKO RUSSARO","FI","","",59.767,22.95,6.5,1906,2015
29840,99999,"INKOO BAGASKAR","FI","","",59.933,24.017,12,1973,2015
30020,99999,"BALTASOUND NO.2","UK","","EGPW",60.75,-0.85,15,1973,2015
30030,99999,"SUMBURGH","UK","","EGPB",59.879,-1.296,6.1,1977,2015
30050,99999,"LERWICK","UK","","",60.133,-1.183,84,1929,2015
30080,99999,"FAIR ISLE","UK","","",59.533,-1.633,57,1973,2015
30100,99999,"SULE SKERRY","UK","","",59.083,-4.4,12,1973,2015
30170,99999,"KIRKWALL","UK","","EGPA",58.958,-2.905,15.5,1973,2015
30220,99999,"BENBECULA","UK","","EGPL",57.481,-7.363,5.8,1973,2015
30260,99999,"STORNOWAY","UK","","EGPO",58.216,-6.331,7.9,1929,2015
30590,99999,"INVERNESS","UK","","EGPE",57.543,-4.048,9.4,1973,2015
30660,99999,"KINLOSS","UK","","EGQK",57.649,-3.561,6.7,1973,2015
30680,99999,"LOSSIEMOUTH","UK","","EGQS",57.705,-3.339,12.8,1973,2015
30750,99999,"WICK","UK","","EGPC",58.459,-3.093,38.4,1929,2015
30910,99999,"DYCE","UK","","EGPD",57.202,-2.198,65.5,1926,2015
31000,99999,"TIREE","UK","","EGPU",56.499,-6.869,11.6,1929,2015
31110,99999,"MACHRIHANISH","UK","","EGQJ",55.433,-5.7,10,1973,2015
31140,99999,"OBAN","UK","","EGEO",56.417,-5.467,4,1978,2015
31350,99999,"PRESTWICK","UK","","EGPK",55.509,-4.587,19.8,1944,2015
31400,99999,"GLASGOW","UK","","EGPF",55.872,-4.433,7.9,1929,2015
31600,99999,"EDINBURGH","UK","","EGPH",55.95,-3.373,41.1,1973,2015
31620,99999,"ESKDALEMUIR","UK","","",55.317,-3.2,242,1929,2015
31710,99999,"LEUCHARS","UK","","EGQL",56.373,-2.868,11.6,1929,2015
32040,99999,"ISLE OF MAN","IM","","EGNS",54.083,-4.624,16.8,1973,2015
32220,99999,"CARLISLE","UK","","EGNC",54.938,-2.809,57.9,1973,2015
32250,99999,"SHAP","UK","","",54.5,-2.683,255,1978,2015
32400,99999,"BOULMER","UK","","EGQM",55.424,-1.603,21.3,1975,2015
32570,99999,"LEEMING","UK","","EGXE",54.292,-1.535,40.2,1973,2015
32635,99999,"DURHAM TEES VALLEY AIRPORT","UK","","EGNV",54.509,-1.429,36.6,1973,2015
32660,99999,"LINTON ON OUSE","UK","","EGXU",54.049,-1.253,16.2,1973,2015
32810,99999,"FYLINGDALES","UK","","",54.367,-0.667,262,1973,2015
33010,99999,"MONA","UK","","",53.267,-4.367,62,1929,2015
33020,99999,"VALLEY","UK","","EGOV",53.248,-4.535,11.3,1926,2015
33180,99999,"BLACKPOOL","UK","","EGNH",53.772,-3.029,10.4,1973,2015
33340,99999,"MANCHESTER","UK","","EGCC",53.354,-2.275,78.3,1933,2015
33440,99999,"BINGLEY NO.2","UK","","",53.817,-1.867,267,1973,2015
33460,99999,"EMLEY MOOR NO 2","UK","","",53.6,-1.667,267,1976,2015
33540,99999,"NOTTINGHAM/WATNALL","UK","","",53,-1.25,117,1973,2015
33730,99999,"SCAMPTON","UK","","EGXP",53.308,-0.551,61.6,1973,2015
33735,99999,"HUMBERSIDE","UK","","EGNJ",53.574,-0.351,36.9,1975,2015
33770,99999,"WADDINGTON","UK","","EGXW",53.166,-0.524,70.4,1950,2015
33790,99999,"CRANWELL","UK","","EGYD",53.03,-0.483,66.4,1929,2015
33910,99999,"CONINGSBY","UK","","EGXC",53.093,-0.166,7.6,1943,2015
34140,99999,"SHAWBURY","UK","","EGOS",52.798,-2.668,75.9,1973,2015
34185,99999,"NOTTINGHAM EAST MIDLANDS","UK","","EGNX",52.831,-1.328,93.3,1973,2015
34620,99999,"WITTERING","UK","","EGXT",52.613,-0.476,83.2,1973,2015
34820,99999,"MARHAM","UK","","EGYM",52.648,0.551,22.9,1949,2015
35020,99999,"ABERPORTH","UK","","EGUC",52.133,-4.567,134,1973,2015
35220,99999,"HEREFORD/CREDENHILL","UK","","",52.083,-2.8,76,1929,2015
35290,99999,"PERSHORE","UK","","",52.15,-2.033,31,1978,2015
35340,99999,"BIRMINGHAM","UK","","EGBB",52.454,-1.748,99.7,1973,2015
35660,99999,"WYTON","UK","","EGUY",52.357,-0.108,41.1,1950,2015
35715,99999,"CAMBRIDGE","UK","","EGSC",52.205,0.175,14.3,1977,2015
35900,99999,"WATTISHAM","UK","","EGUW",52.127,0.956,86.6,1973,2015
36040,99999,"MILFORD HAVEN CONSERVANCY BOARD","UK","","",51.7,-5.05,32,1973,2015
36090,99999,"MUMBLES HEAD","UK","","",51.567,-3.983,32,1973,2015
36280,99999,"FILTON","UK","","",51.517,-2.583,59,1937,2015
36333,99999,"GLOUCESTERSHIRE","UK","","EGBJ",51.894,-2.167,30.8,1977,2015
36440,99999,"FAIRFORD","UK","","EGVA",51.682,-1.79,87.2,1952,2015
36490,99999,"BRIZE NORTON","UK","","EGVN",51.75,-1.584,87.8,1951,2015
36580,99999,"BENSON","UK","","EGUB",51.616,-1.096,68.9,1973,2015
36584,99999,"COLERNE","UK","","EGUO",51.439,-2.286,180.7,1942,2015
36720,99999,"NORTHOLT","UK","","EGWU",51.553,-0.418,37.8,1973,2015
36830,99999,"STANSTED","UK","","EGSS",51.885,0.235,106.1,1973,2015
36930,99999,"SHOEBURYNESS  LANDWICK","UK","","",51.55,0.833,3,1929,2015
37070,99999,"CHIVENOR","UK","","EGDC",51.087,-4.15,8.2,1973,2015
37150,99999,"CARDIFF","UK","","EGFF",51.397,-3.343,67.1,1973,2015
37400,99999,"LYNEHAM","UK","","EGDL",51.505,-1.993,156.4,1973,2015
37460,99999,"BOSCOMBE DOWN","UK","","EGDM",51.152,-1.747,124.1,1931,2015
37490,99999,"MIDDLE WALLOP","UK","","EGVP",51.15,-1.567,91,1973,2015
37610,99999,"ODIHAM","UK","","EGVO",51.234,-0.943,123.4,1973,2015
37630,99999,"BRACKNELL/BEAUFORT","UK","","EGRR",51.383,-0.783,74,1973,2015
37720,99999,"HEATHROW","UK","","EGLL",51.478,-0.461,25.3,1948,2015
37760,99999,"GATWICK","UK","","EGKK",51.148,-0.19,61.6,1973,2015
37960,99999,"LANGDON BAY","UK","","",51.133,1.35,117,1973,2015
37970,35047,"MANSTON","UK","","EGMH",51.35,1.333,50,1930,2015
38080,99999,"CAMBORNE","UK","","",50.217,-5.317,88,1973,2015
38090,99999,"CULDROSE","UK","","EGDR",50.086,-5.256,81.4,1973,2015
38270,99999,"PLYMOUTH/MOUNTBATTE","UK","","EGDB",50.35,-4.117,27,1973,2015
38390,99999,"EXETER","UK","","EGTE",50.734,-3.414,31.1,1973,2015
38530,99999,"YEOVILTON","UK","","EGDY",51.009,-2.639,22.9,1973,2015
38570,99999,"ISLE OF PORTLAND","UK","","",50.517,-2.45,52,1973,2015
38620,99999,"BOURNEMOUTH","UK","","EGHH",50.78,-1.843,11.6,1973,2015
38650,99999,"SOUTHAMPTON","UK","","EGHI",50.95,-1.357,13.4,1973,2015
38660,99999,"WIGHT: ST. CATHERINES POINT","UK","","",50.583,-1.3,24,1973,2015
38940,99999,"GUERNSEY","GK","","EGJB",49.435,-2.602,102.4,1929,2015
38950,99999,"JERSEY","JE","","EGJJ",49.208,-2.196,84.4,1973,2015
39150,99999,"PORTGLENONE","UK","","",54.867,-6.45,65,1973,2015
39170,99999,"ALDERGROVE","UK","","EGAA",54.658,-6.216,81.7,1930,2015
39240,99999,"CITY","UK","","EGAC",54.618,-5.873,4.6,1973,2015
39520,99999,"ROCHES POINT","EI","","",51.8,-8.25,41,1929,2015
39530,99999,"VALENTIA OBSERVATORY","EI","","",51.933,-10.25,30,1926,2015
39550,99999,"CORK","EI","","EICK",51.841,-8.491,153,1973,2015
39620,99999,"SHANNON","EI","","EINN",52.702,-8.925,14,1973,2015
39660,99999,"GURTEEN","EI","","",53.017,-8,76,1929,2015
39690,99999,"DUBLIN","EI","","EIDW",53.421,-6.27,73.8,1973,2015
39700,99999,"CLAREMORRIS","EI","","",53.717,-8.983,69,1973,2015
39710,99999,"MULLINGAR","EI","","",53.533,-7.367,100,1973,2015
39730,99999,"CONNAUGHT","EI","","EIKN",53.91,-8.818,202.7,1929,2015
39760,99999,"BELMULLET","EI","","",54.233,-10,9.7,1973,2015
39800,99999,"MALIN HEAD","EI","","",55.367,-7.333,25,1926,2015
40050,99999,"BOLUNGAVIK","IC","","",66.15,-23.25,24,1952,2015
40130,99999,"STYKKISHOLMUR","IC","","BIST",65.083,-22.733,8,1973,2015
40180,16201,"KEFLAVIK NAVAL AIR STATION","IC","","BIKF",63.967,-22.6,52.1,1942,2015
40300,99999,"REYKJAVIK","IC","","BIRK",64.13,-21.941,14.6,1931,2015
40380,99999,"EYRARBAKKI","IC","","",63.867,-21.15,5,1974,2015
40480,99999,"VESTMANNAEYJAR","IC","","BIVM",63.424,-20.279,99.4,1931,2015
40530,99999,"BERGSTADIR","IC","","",65.7,-19.617,43,1954,2015
40630,99999,"AKUREYRI","IC","","BIAR",65.66,-18.073,1.8,1931,2015
40650,99999,"GRIMSEY ISLAND","IC","","BIGR",66.533,-18.017,16,1913,2015
40730,99999,"GRIMSSTADIR","IC","","",65.633,-16.117,386,1949,2015
40820,99999,"HORNAFJORDUR","IC","","BIHN",64.296,-15.227,7.3,1973,2015
40850,99999,"SKJALDTHINGSSTADIR","IC","","BIVO",65.75,-14.833,48,1975,2015
40890,99999,"EGILSSTADIR","IC","","BIEG",65.283,-14.401,23.2,1949,2015
40970,99999,"DALATANGI","IC","","",65.267,-13.583,11,1931,2015
41650,99999,"GRIMSEY","IC","","",66.533,-18.017,17,1963,2015
41750,99999,"ICELAND SITE","IC","","",66.51,-16.54,59.3,1963,2015
41950,99999,"ICELAND SITE","IC","","",65.28,-14,92.4,1980,2015
42020,99999,"THULE AIR BASE","GL","","BGTL",76.531,-68.703,76.5,1951,2015
42030,99999,"KITSISSUT (CAREY OEER)","GL","","",76.633,-73,11,1973,2015
42050,99999,"MITTARFIK QAANAAQ","GL","","",77.483,-69.383,16,1973,2015
42200,99999,"AASIAAT (EGEDESMINDE)","GL","","BGEM",68.7,-52.85,41,1943,2015
42310,99999,"SONDRE STROMFJORD","GL","","BGSF",67.017,-50.689,50.3,1941,2015
42500,99999,"NUUK (GODTHAAB)","GL","","",64.167,-51.75,84,1949,2015
42700,99999,"NARSARSUAQ","GL","","BGBW",61.161,-45.426,34.1,1941,2015
42720,99999,"JULIANEHAAB","GL","","BGJH",60.717,-46.05,34,1936,2015
43200,99999,"DANMARKSHAVN (PORT)","GL","","BGDH",76.767,-18.667,12,1949,2015
43300,99999,"DANEBORG (AUT)","GL","","BGDB",74.3,-20.217,44,1945,2015
43390,99999,"SCORESBYSUND","GL","","BGSC",70.483,-21.95,69,1936,2015
43600,99999,"TASIILAQ","GL","","BGAM",65.6,-37.633,52,1936,2015
43610,99999,"KULUSUK LUFTHAVN","GL","","BGKK",65.583,-37.15,37,1943,2015
43820,99999,"IKERMIUARSUK","GL","","",61.933,-42.067,39,1943,2015
43900,99999,"PRINS CHRISTIAN","GL","","BGPC",60.033,-43.117,19,1943,2015
60090,99999,"AKRABERG","DA","","",61.4,-6.667,102,1973,2015
60100,99999,"VAGAR","FO","","EKVG",62.064,-7.277,85.3,1974,2015
60110,99999,"TORSHAVN","DA","","",62.017,-6.767,61,1931,2015
60210,99999,"HANSTHOLM","DA","","",57.117,8.6,3,1931,2015
60300,99999,"FLYVESTATION AALBORG","DA","","EKYT",57.093,9.849,3,1940,2015
60330,99999,"HIRTSHALS","DA","","",57.6,9.967,3,1977,2015
60410,99999,"SKAGEN","DA","","",57.733,10.633,5,1928,2015
60520,99999,"THYBOROEN","DA","","",56.7,8.217,4,1973,2015
60600,99999,"KARUP","DA","","EKKA",56.297,9.125,51.8,1973,2015
60650,99999,"AARS SYD","DA","","",56.75,9.5,33,1978,2015
60660,99999,"STAUNING","DA","","EKVJ",55.99,8.354,5.2,1973,2015
60700,99999,"AARHUS","DA","","EKAH",56.3,10.619,25,1973,2015
60730,99999,"SLETTERHAGE FYR","DA","","",56.1,10.517,6,1977,2015
60740,99999,"AARHUS SYD","DA","","",56.083,10.133,55,1977,2015
60790,99999,"ANHOLT","DA","","",56.717,11.517,4,1973,2015
60800,99999,"ESBJERG","DA","","EKEB",55.526,8.553,29.6,1973,2015
60810,99999,"BLAAVANDSHUK","DA","","",55.55,8.083,18,1928,2015
61040,99999,"BILLUND","DA","","EKBI",55.74,9.152,75.3,1973,2015
61100,99999,"SKRYDSTRUP","DA","","EKSP",55.226,9.264,43,1973,2015
61180,99999,"SONDERBORG","DA","","EKSB",54.964,9.792,7.3,1973,2015
61190,99999,"KEGNAES","DA","","",54.85,9.983,19,1973,2015
61200,99999,"ODENSE","DA","","EKOD",55.477,10.331,17.1,1973,2015
61470,99999,"VINDEBAEK KYST","DA","","",54.883,12.183,3,1973,2015
61490,99999,"GEDSER","DA","","",54.567,11.95,5,1953,2015
61510,99999,"OMOE","DA","","",55.167,11.133,3,1973,2015
61560,99999,"HOLBAEK","DA","","",55.733,11.6,13,1974,2015
61590,99999,"ROESNAES","DA","","",55.75,10.867,15,1974,2015
61690,99999,"GNIBEN","DA","","",56.017,11.283,12,1974,2015
61700,99999,"ROSKILDE","DA","","EKRK",55.586,12.131,44.5,1977,2015
61800,99999,"KASTRUP","DA","","EKCH",55.618,12.656,5.2,1929,2015
61900,99999,"BORNHOLM RONNE","DA","","EKRN",55.063,14.76,15.8,1974,2015
61930,99999,"HAMMER ODDE FYR","DA","","",55.3,14.767,9,1931,2015
62100,99999,"VALKENBURG","NL","","EHVB",52.167,4.433,1,1949,2015
62250,99999,"IJMUIDEN","NL","","",52.467,4.567,4,1953,2015
62350,99999,"DE KOOIJ","NL","","EHKD",52.923,4.781,0.9,1973,2015
62400,99999,"SCHIPHOL","NL","","EHAM",52.309,4.764,-3.4,1932,2015
62420,99999,"VLIELAND ISLAND","NL","","EHVL",53.25,4.917,5,1973,2015
62600,99999,"DE BILT","NL","","EHDB",52.1,5.183,4,1931,2015
62700,99999,"LEEUWARDEN","NL","","EHLW",53.229,5.761,0.9,1949,2015
62750,99999,"DEELEN","NL","","EHDL",52.061,5.873,48.2,1949,2015
62800,99999,"EELDE","NL","","EHGG",53.12,6.579,5.2,1931,2015
62900,99999,"TWENTHE","NL","","EHTW",52.27,6.874,34.7,1949,2015
63100,99999,"VLISSINGEN","NL","","",51.45,3.6,10,1928,2015
63200,99999,"LE GOEREE","NL","","EHSC",51.933,3.667,19,1949,2015
63300,99999,"HOEK VAN HOLLAND","NL","","",51.983,4.1,14,1949,2015
63400,99999,"WOENSDRECHT","NL","","EHWO",51.449,4.342,19.2,1949,2015
63440,99999,"ROTTERDAM","NL","","EHRD",51.957,4.437,-4.6,1957,2015
63500,99999,"GILZE RIJEN","NL","","EHGR",51.567,4.932,14.9,1949,2015
63700,99999,"EINDHOVEN","NL","","EHEH",51.45,5.375,22.6,1949,2015
63750,99999,"VOLKEL","NL","","EHVK",51.656,5.709,21.9,1951,2015
63800,99999,"MAASTRICHT","NL","","EHBK",50.912,5.77,114.3,1949,2015
64000,99999,"KOKSIJDE","BE","","EBFN",51.09,2.653,6.1,1949,2015
64070,99999,"OOSTENDE","BE","","EBOS",51.199,2.862,4,1936,2015
64280,99999,"SEMMERZAKE","BE","","EBMT",50.933,3.667,37.5,1973,2015
64310,99999,"GENT/INDUSTRIE-ZONE","BE","","EBGT",51.183,3.8,8,1979,2015
64320,99999,"CHIEVRES AB","BE","","EBCV",50.576,3.831,58.8,1973,2015
64470,99999,"UCCLE","BE","","",50.8,4.35,101,1949,2015
64490,99999,"BRUSSELS SOUTH","BE","","EBCI",50.459,4.454,187.1,1973,2015
64500,99999,"DEURNE","BE","","EBAW",51.189,4.46,11.9,1940,2015
64510,99999,"BRUSSELS NATL","BE","","EBBR",50.901,4.484,56.1,1930,2015
64560,99999,"FLORENNES","BE","","EBFS",50.243,4.646,285,1949,2015
64580,99999,"BEAUVECHAIN","BE","","EBBE",50.759,4.768,112.8,1973,2015
64590,99999,"ERNAGE","BE","","",50.583,4.683,157,1931,2015
64650,99999,"SCHAFFEN","BE","","EBDT",51,5.067,54,1973,2015
64760,99999,"SAINT HUBERT MIL","BE","","EBSU",50.036,5.404,588.3,1949,2015
64780,99999,"LIEGE","BE","","EBLG",50.637,5.443,200.9,1949,2015
64790,99999,"KLEINE BROGEL","BE","","EBBL",51.168,5.47,61,1973,2015
64900,99999,"SPA/LA SAUVENIERE","BE","","EBSP",50.483,5.917,482,1950,2015
65900,99999,"LUXEMBOURG","LU","","ELLX",49.627,6.212,376.1,1949,2015
66100,99999,"PAYERNE","SZ","","",46.817,6.95,490.5,1959,2015
66120,99999,"LA CHAUX-DE-FONDS","SZ","","",47.083,6.8,1018.1,1980,2015
66200,99999,"SCHAFFHAUSEN","SZ","","",47.683,8.617,437,1955,2015
66320,99999,"GRENCHEN","SZ","","",47.183,7.417,429,1979,2015
66430,99999,"WYNAU","SZ","","",47.25,7.783,416,1978,2015
66580,99999,"ALPNACH","SZ","","LSMA",46.944,8.284,445,1977,2015
66600,99999,"ZUERICH-FLUNTERN","SZ","","",47.383,8.567,557.6,1935,2015
66690,99999,"LAEGEREN","SZ","","",47.483,8.4,843,1974,2015
66700,99999,"ZURICH","SZ","","LSZH",47.465,8.549,431.6,1955,2015
66720,99999,"ALTDORF","SZ","","",46.867,8.633,451,1979,2015
66800,99999,"SAENTIS","SZ","","",47.25,9.35,2500,1935,2015
67000,99999,"GENEVA COINTRIN","SZ","","LSGG",46.238,6.109,430.1,1935,2015
67020,99999,"LA DOLE","SZ","","",46.433,6.1,1670.2,1973,2015
67200,99999,"SION","SZ","","LSGS",46.22,7.327,481.9,1955,2015
67240,99999,"MONTANA","SZ","","",46.3,7.467,1508,1979,2015
67300,99999,"JUNGFRAUJOCH","SZ","","",46.55,7.983,3576,1935,2015
67340,99999,"INTERLAKEN","SZ","","",46.667,7.867,578,1977,2015
67500,99999,"GUETSCH OB ANDERMATT","SZ","","",46.65,8.617,2284.2,1955,2015
67530,99999,"PIOTTA","SZ","","",46.517,8.683,1016,1979,2015
67590,99999,"CIMETTA","SZ","","",46.2,8.8,1648,1974,2015
67600,99999,"LOCARNO-MONTI","SZ","","",46.167,8.783,380,1973,2015
67620,99999,"LOCARNO - MAGADINO","SZ","","LSZL",46.17,8.88,198,1955,2015
67700,99999,"LUGANO","SZ","","LSZA",46.004,8.911,278.9,1935,2015
67820,99999,"DISENTIS-SEDRUN","SZ","","",46.7,8.85,1180,1977,2015
67860,99999,"CHUR","SZ","","",46.867,9.533,556,1980,2015
67910,99999,"PIZ CORVATSCH","SZ","","",46.417,9.817,3299,1977,2015
67920,99999,"SAMEDAM","SZ","","",46.533,9.883,1706,1980,2015
67940,99999,"POSCHIAVO-ROBBIA","SZ","","",46.35,10.067,1079.1,1978,2015
69900,99999,"VADUZ","LS","","",47.133,9.517,463,1973,2015
70020,99999,"BOULOGNE","FR","","",50.733,1.6,74,1973,2015
70030,99999,"LE TOUQUET PARIS PLAGE","FR","","LFAT",50.515,1.627,11,1973,2015
70050,99999,"ABBEVILLE","FR","","LFOI",50.143,1.832,67.1,1926,2015
70090,99999,"CALAIS/DUNKERQUE","FR","","",50.967,1.95,3,1929,2015
70100,99999,"DUNKERQUE","FR","","",51.05,2.333,17,1973,2015
70150,99999,"LESQUIN","FR","","LFQQ",50.562,3.089,47.9,1945,2015
70200,99999,"LA HAGUE","FR","","",49.717,-1.933,12,1936,2015
70220,99999,"VIGITE DU HAUMET","FR","","",49.65,-1.5,130,1976,2015
70240,99999,"MAUPERTUS","FR","","LFRC",49.65,-1.47,139.9,1936,2015
70270,99999,"CARPIQUET","FR","","LFRK",49.173,-0.45,78,1973,2015
70280,99999,"OCTEVILLE","FR","","LFOH",49.534,0.088,95.4,1931,2015
70310,99999,"ST GATIEN","FR","","LFRG",49.365,0.154,146,1973,2015
70370,99999,"VALLEE DE SEINE","FR","","LFOP",49.384,1.175,156.1,1973,2015
70380,34061,"EVREUX","FR","","LFOE",49.017,1.217,138,1973,2015
70400,99999,"DIEPPE","FR","","",49.933,1.1,38,1973,2015
70530,99999,"CORMEILLES","FR","","",49.083,2.033,88,1973,2015
70550,99999,"TILLE","FR","","LFOB",49.454,2.113,109.4,1936,2015
70570,99999,"CREIL","FR","","LFPC",49.254,2.519,88.7,1940,2015
70590,99999,"MEAULTE","FR","","",49.967,4.2,111,1940,2015
70610,99999,"ST. QUENTIN/ROUPY","FR","","LFOW",49.817,3.2,101,1936,2015
70720,99999,"REIMS-PRUNAY","FR","","LFQA",49.217,4.15,96,1936,2015
70750,99999,"CHARLEVILLE MEZIERES","FR","","LFQV",49.784,4.647,149,1940,2015
71000,99999,"OUESSANT","FR","","",48.483,-5.05,68,1936,2015
71030,99999,"POINTE DU RAZ","FR","","",48.033,-4.733,89,1973,2015
71060,99999,"LANDIVISIAU","FR","","LFRJ",48.53,-4.152,106.1,1973,2015
71100,99999,"GUIPAVAS","FR","","LFRB",48.448,-4.419,99.1,1929,2015
71160,99999,"BATZ ISLAND","FR","","",48.75,-4.017,37,1976,2015
71210,99999,"BREHAT ISLAND","FR","","",48.85,-3,36,1936,2015
71250,99999,"PLEURTUIT","FR","","LFRD",48.588,-2.08,66.8,1973,2015
71300,99999,"ST JACQUES","FR","","LFRN",48.07,-1.735,37.8,1931,2015
71330,99999,"POINTE DU ROC","FR","","",48.833,-1.617,42,1973,2015
71390,99999,"ALENCON/VALFRAMBERT","FR","","LFOF",48.45,0.117,141,1973,2015
71400,99999,"CHATEAUDUN","FR","","LFOC",48.058,1.377,132,1973,2015
71430,99999,"CHARTRES/CHAMPOL","FR","","LFOR",48.467,1.517,156,1936,2015
71460,99999,"TOUSSUS LE NOBLE","FR","","LFPN",48.752,2.106,164,1973,2015
71470,99999,"VELIZY","FR","","LFPV",48.774,2.202,178,1942,2015
71490,99999,"ORLY","FR","","LFPO",48.725,2.359,88.7,1937,2015
71500,99999,"LE BOURGET","FR","","LFPB",48.969,2.441,66.4,1928,2015
71530,99999,"VILLAROCHE","FR","","LFPM",48.605,2.671,92,1973,2015
71570,99999,"CHARLES DE GAULLE","FR","","LFPG",49.013,2.55,119.5,1974,2015
71650,99999,"VATRY","FR","","LFOK",48.776,4.184,178.9,1975,2015
71680,99999,"BARBEREY","FR","","LFQB",48.322,4.017,118.3,1975,2015
71690,99999,"ROBINSON","FR","","LFSI",48.636,4.899,139.6,1942,2015
71790,34051,"TOUL / ROSIERES","FR","","LFSL",48.783,5.983,286,1973,2015
71800,99999,"ESSEY","FR","","LFSN",48.692,6.23,228.9,1926,2015
71810,99999,"OCHEY","FR","","LFSO",48.583,5.955,337.1,1973,2015
71900,99999,"ENTZHEIM","FR","","LFST",48.538,7.628,153.9,1931,2015
71970,99999,"MEYENHEIM","FR","","LFSC",47.917,7.4,211.2,1973,2015
72000,99999,"PENMARCH","FR","","",47.8,-4.367,19,1936,2015
72010,99999,"PLUGUFFAN","FR","","LFRQ",47.975,-4.168,90.5,1973,2015
72050,99999,"LANN BIHOUE","FR","","LFRH",47.761,-3.44,48.8,1973,2015
72070,99999,"POINTE DU TALUT","FR","","",47.3,-3.167,43,1931,2015
72170,99999,"MONTOIR","FR","","LFRZ",47.312,-2.149,4,1973,2015
72220,99999,"NANTES ATLANTIQUE","FR","","LFRS",47.153,-1.611,27.4,1937,2015
72300,99999,"BEAUCOUZE","FR","","LFRA",47.483,-0.6,50,1936,2015
72350,99999,"ARNAGE","FR","","LFRM",47.949,0.202,59.1,1973,2015
72400,99999,"VAL DE LOIRE","FR","","LFOT",47.432,0.728,108.8,1931,2015
72470,99999,"ROMORANTIN/PRUNIERS","FR","","LFYR",47.317,1.683,86,1936,2015
72490,99999,"BRICY","FR","","LFOJ",47.988,1.761,125.6,1936,2015
72550,99999,"BOURGES","FR","","LFLD",47.058,2.37,161.2,1973,2015
72570,99999,"AVORD","FR","","",47.05,2.65,177,1931,2015
72600,99999,"FOURCHAMBAULT","FR","","LFQG",47.003,3.113,183.5,1973,2015
72800,99999,"LONGVIC","FR","","LFSD",47.269,5.09,221.3,1931,2015
72830,99999,"LANGRES","FR","","",47.85,5.333,467,1973,2015
72880,99999,"BESANCON/THISE(AUT)","FR","","LFSA",47.25,5.983,309,1973,2015
72920,99999,"SAINT SAUVEUR","FR","","LFSX",47.783,6.364,278.3,1941,2015
72990,99999,"BALE MULHOUSE","FR","","LFSB",47.59,7.53,269.7,1973,2015
73000,99999,"SAINT-SAUVEUR","FR","","",46.7,-2.333,32,1973,2015
73140,99999,"CHASSIRON","FR","","",46.05,-1.417,22,1973,2015
73150,99999,"LA ROCHELLE","FR","","",46.15,-1.15,10,1929,2015
73350,99999,"BIARD","FR","","LFBI",46.588,0.307,128.9,1936,2015
73540,34048,"CHATEAURROUX DEOLS","FR","","LFLX",46.867,1.717,157,1936,2015
73740,99999,"CHARMEIL","FR","","LFLV",46.17,3.404,249,1973,2015
73790,99999,"SAINT YAN","FR","","LFLN",46.413,4.013,242.6,1973,2015
73850,99999,"CHARNAY","FR","","LFLM",46.295,4.796,221.9,1973,2015
74120,99999,"CHATEAUBERNARD","FR","","LFBG",45.658,-0.318,31.1,1973,2015
74200,99999,"CHAMPNIERS","FR","","LFBU",45.717,0.217,133,1931,2015
74340,99999,"BELLEGARDE","FR","","LFBL",45.863,1.179,396.2,1973,2015
74600,99999,"AUVERGNE","FR","","LFLC",45.787,3.169,332.2,1931,2015
74750,99999,"BOUTHEON","FR","","LFMH",45.541,4.296,403.9,1973,2015
74770,99999,"LES SAUVAGES","FR","","",45.933,4.383,720,1973,2015
74800,99999,"BRON","FR","","LFLY",45.727,4.944,200.9,1973,2015
74810,99999,"SAINT EXUPERY","FR","","LFLL",45.726,5.091,250.2,1931,2015
74820,99999,"AMBERIEU","FR","","LFXA",45.987,5.328,250.9,1980,2015
74860,99999,"SAINT GEOIRS","FR","","LFLS",45.363,5.329,396.8,1973,2015
74890,99999,"SAINT-PANCRASSE","FR","","",45.3,5.867,1154,1931,2015
74910,99999,"AIX LES BAINS","FR","","LFLB",45.638,5.88,237.4,1973,2015
74970,99999,"BOURG ST-MAURICE","FR","","",45.617,6.767,868,1973,2015
75000,99999,"CAP FERRET","FR","","",44.633,-1.25,10,1973,2015
75020,99999,"CAZAUX","FR","","LFBC",44.533,-1.125,25.6,1936,2015
75030,99999,"BISCAROSSE/PARENTIS","FR","","LFBS",44.433,-1.25,39,1974,2015
75100,99999,"MERIGNAC","FR","","LFBD",44.828,-0.716,49.4,1931,2015
75240,99999,"LA GARENNE","FR","","LFBA",44.175,0.591,62.2,1973,2015
75350,99999,"GOURDON","FR","","",44.75,1.4,261,1973,2015
75490,99999,"AURILLAC","FR","","LFLW",44.891,2.422,638.9,1979,2015
75520,99999,"MARCILLAC","FR","","LFCR",44.408,2.483,582.2,1974,2015
75580,99999,"MILLAU","FR","","",44.117,3.017,720,1936,2015
75600,99999,"MONT AIGOUAL","FR","","",44.117,3.583,1565,1936,2015
75770,99999,"MONTELIMAR/ANCONE","FR","","LFLQ",44.583,4.733,74,1931,2015
75790,99999,"CARITAT","FR","","LFMO",44.14,4.867,60,1973,2015
75860,99999,"CARPENTRAS","FR","","",44.083,5.05,105,1976,2015
75880,99999,"ST-AUBAN-SUR-DURANC","FR","","LFMX",44.067,6,461,1973,2015
75890,99999,"SAINT CHRISTOPHE / OISANS","FR","","",44.933,6.25,1570,1936,2015
75910,99999,"EMBRUN","FR","","",44.567,6.5,876,1973,2015
76020,99999,"ANGLET","FR","","LFBZ",43.468,-1.523,74.7,1929,2015
76030,99999,"DAX SEYRESSE","FR","","LFBY",43.683,-1.067,33,1973,2015
76070,99999,"MONT DE MARSAN","FR","","LFBM",43.912,-0.508,61.9,1931,2015
76100,99999,"PAU PYRENEES","FR","","LFBP",43.38,-0.419,187.8,1936,2015
76210,99999,"LOURDES","FR","","LFBT",43.179,-0.006,384,1973,2015
76270,99999,"ANTICHAN","FR","","LFCG",43.008,1.103,417,1973,2015
76300,99999,"BLAGNAC","FR","","LFBO",43.629,1.364,152.1,1973,2015
76310,99999,"FRANCAZAL","FR","","LFBF",43.546,1.368,163.1,1931,2015
76350,99999,"SALVAZA","FR","","LFMK",43.216,2.306,132,1973,2015
76410,99999,"SETE","FR","","",43.4,3.7,77,1936,2015
76415,99999,"VIAS","FR","","LFMU",43.324,3.354,17.1,1975,2015
76430,99999,"MEDITERRANEE","FR","","LFMT",43.576,3.963,5.2,1973,2015
76450,99999,"NIMES/COURBESSAC","FR","","LFME",43.867,4.4,62,1936,2015
76460,99999,"GARONS","FR","","LFTW",43.757,4.416,94.2,1973,2015
76470,99999,"LE TUBE","FR","","LFMI",43.523,4.924,25,1936,2015
76480,99999,"SALON","FR","","LFMY",43.606,5.109,59.4,1973,2015
76500,99999,"PROVENCE","FR","","LFML",43.436,5.214,22.6,1931,2015
76530,99999,"CAP COURONNE","FR","","",43.333,5.05,27,1975,2015
76560,99999,"BEC DE LAIGLE","FR","","",43.183,5.583,315,1976,2015
76600,99999,"TOULON","FR","","",43.1,5.933,25,1936,2015
76610,99999,"CAP CEPET","FR","","",43.083,5.933,134,1976,2015
76670,99999,"LE PALYVESTRE","FR","","LFTH",43.097,6.146,2.1,1973,2015
76700,99999,"PORQUEROLLES","FR","","",43,6.233,147,1973,2015
76750,99999,"LE CANNET","FR","","LFMC",43.385,6.387,80.8,1976,2015
76770,99999,"CAPE CAMARAT","FR","","",43.2,6.683,112,1975,2015
76780,99999,"TOULON/ILE DU LEVAN","FR","","",43.033,6.467,131,1976,2015
76880,99999,"LA GAROUPE","FR","","",43.567,7.133,82,1975,2015
76900,99999,"COTE D AZUR","FR","","LFMN",43.658,7.216,3.7,1945,2015
77470,99999,"RIVESALTES","FR","","LFMP",42.74,2.871,43.9,1929,2015
77490,99999,"CAP BEAR","FR","","",42.517,3.133,86,1973,2015
77520,99999,"LA PARATA","FR","","",41.917,8.617,40,1936,2015
77540,99999,"SAINT CATHERINE","FR","","LFKC",42.531,8.793,63.7,1973,2015
77610,99999,"CAMPO DELL ORO","FR","","LFKJ",41.924,8.803,5.5,1936,2015
77650,99999,"SOLENZARA","FR","","LFKS",41.924,9.406,8.5,1973,2015
77680,99999,"LA CHIAPPA","FR","","",41.6,9.367,68,1936,2015
77700,99999,"CAP PERTUSATO","FR","","",41.367,9.167,116,1936,2015
77800,99999,"SUD CORSE","FR","","LFKF",41.501,9.098,26.5,1980,2015
77850,99999,"CAP CORSE","FR","","",43,9.35,106,1936,2015
77900,99999,"PORETTA","FR","","LFKB",42.553,9.484,7.9,1945,2015
77910,99999,"CAPE SAGRO","FR","","",42.8,9.483,120,1943,2015
80010,99999,"LA CORUNA","SP","","",43.367,-8.417,67,1931,2015
80020,99999,"A CORUNA","SP","","LECO",43.302,-8.377,98.5,1974,2015
80080,99999,"LUGO/ROZAS","SP","","",43.117,-7.45,446,1973,2015
80110,99999,"ASTURIAS","SP","","LEAS",43.564,-6.035,126.8,1973,2015
80140,99999,"GIJON-MUSEL","SP","","",43.567,-5.7,6,1973,2015
80150,99999,"OVIEDO","SP","","",43.35,-5.867,339,1973,2015
80210,99999,"SANTANDER","SP","","LEXJ",43.427,-3.82,4.9,1973,2015
80230,99999,"SANTANDER","SP","","",43.483,-3.8,59,1973,2015
80250,99999,"BILBAO","SP","","LEBB",43.301,-2.911,42.1,1973,2015
80270,99999,"SAN SEBASTIAN/IGUELDO","SP","","",43.3,-2.033,259,1973,2015
80290,99999,"SAN SEBASTIAN","SP","","LESO",43.357,-1.791,4.6,1973,2015
80420,99999,"SANTIAGO","SP","","LEST",42.896,-8.415,369.7,1973,2015
80440,99999,"PONTEVEDRA","SP","","",42.433,-8.617,108,1973,2015
80450,99999,"VIGO","SP","","LEVX",42.232,-8.627,260.6,1973,2015
80480,99999,"ORENSE","SP","","",42.333,-7.867,147,1973,2015
80530,99999,"PONFERRADA","SP","","",42.567,-6.6,550,1973,2015
80550,99999,"LEON","SP","","LELN",42.589,-5.656,916.2,1973,2015
80750,99999,"BURGOS","SP","","LEBG",42.358,-3.621,897.6,1973,2015
80800,99999,"VITORIA","SP","","LEVT",42.883,-2.724,512.7,1973,2015
80840,99999,"LOGRONO/AGONCILLO","SP","","LELO",42.45,-2.333,363,1973,2015
80850,99999,"PAMPLONA","SP","","LEPP",42.77,-1.646,458.4,1973,2015
80940,99999,"HUESCA-PIRINEOS","SP","","LEHC",42.083,-0.333,554,1973,2015
81300,99999,"ZAMORA","SP","","",41.517,-5.733,667,1973,2015
81400,99999,"VALLADOLID","SP","","LEVD",41.706,-4.852,845.8,1973,2015
81410,99999,"VALLADOLID","SP","","",41.633,-4.75,735,1973,2015
81480,99999,"SORIA","SP","","",41.783,-2.483,1082,1973,2015
81570,99999,"DAROCA I","SP","","",41.117,-1.417,779,1973,2015
81600,99999,"ZARAGOZA AB","SP","","LEZG",41.666,-1.042,263,1973,2015
81710,99999,"LERIDA","SP","","",41.633,0.6,199,1973,2015
81750,99999,"REUS","SP","","LERS",41.147,1.167,71.3,1973,2015
81810,99999,"BARCELONA","SP","","LEBL",41.297,2.078,3.7,1973,2015
81840,99999,"GIRONA","SP","","LEGE",41.901,2.761,142.6,1973,2015
82020,99999,"SALAMANCA","SP","","LESA",40.952,-5.502,791,1973,2015
82100,99999,"AVILA","SP","","",40.667,-4.683,1132,1973,2015
82130,99999,"SEGOVIA","SP","","",40.95,-4.133,1005,1973,2015
82150,99999,"NAVACERRADA PUERTO","SP","","",40.8,-4.017,1888,1973,2015
82210,99999,"BARAJAS","SP","","LEMD",40.494,-3.567,609.6,1931,2015
82230,99999,"CUATRO VIENTOS","SP","","LEVS",40.371,-3.785,691,1973,2015
82240,99999,"GETAFE","SP","","LEGT",40.294,-3.724,618.4,1973,2015
82260,99999,"GUADALAJARA","SP","","",40.667,-3.167,640,1973,2015
82270,99999,"TORREJON","SP","","LETO",40.497,-3.446,617.5,1957,2015
82310,99999,"CUENCA","SP","","",40.067,-2.133,946,1973,2015
82320,99999,"MOLINA DE ARAGON","SP","","",40.85,-1.883,1063,1973,2015
82330,99999,"CALAMOCHA","SP","","LECH",40.933,-1.3,889,1973,2015
82350,99999,"TERUEL","SP","","",40.35,-1.117,902,1973,2015
82380,99999,"TORTOSA","SP","","",40.817,0.5,50,1973,2015
82610,99999,"CACERES","SP","","",39.467,-6.333,405,1973,2015
82720,99999,"TOLEDO","SP","","",39.883,-4.05,516,1973,2015
82800,99999,"ALBACETE","SP","","LEAB",38.949,-1.864,701.6,1973,2015
82840,99999,"VALENCIA","SP","","LEVC",39.489,-0.482,68.6,1973,2015
82860,99999,"CASTELLON-ALMAZORA","SP","","",39.95,-0.067,43.5,1973,2015
83060,99999,"PALMA DE MALLORCA","SP","","LEPA",39.55,2.733,8,1973,2015
83140,99999,"MENORCA","SP","","LEMH",39.863,4.219,90.8,1931,2015
83300,99999,"TALAVERA LA REAL","SP","","LEBZ",38.891,-6.821,185.6,1973,2015
83480,99999,"CIUDAD REAL","SP","","LERL",38.983,-3.917,629,1973,2015
83590,99999,"ALICANTE","SP","","",38.367,-0.5,82,1973,2015
83600,99999,"ALICANTE","SP","","LEAL",38.282,-0.558,43.3,1973,2015
83730,99999,"IBIZA","SP","","LEIB",38.873,1.373,6.1,1973,2015
83830,99999,"HUELVA","SP","","",37.283,-6.917,20,1973,2015
83910,99999,"SEVILLA","SP","","LEZL",37.418,-5.893,33.8,1973,2015
83970,99999,"MORON AB","SP","","LEMO",37.175,-5.616,86.9,1958,2015
84100,99999,"CORDOBA","SP","","LEBA",37.842,-4.849,90.5,1973,2015
84170,99999,"JAEN","SP","","",37.783,-3.817,580,1973,2015
84190,99999,"GRANADA","SP","","LEGR",37.189,-3.777,566.9,1973,2015
84290,99999,"ALCANTARILLA","SP","","LERI",37.951,-1.23,76.2,1973,2015
84300,99999,"MURCIA","SP","","",38,-1.167,62,1973,2015
84330,99999,"MURCIA SAN JAVIER","SP","","LELC",37.775,-0.812,3.4,1973,2015
84490,13025,"ROTA NAVAL AIR STATION","SP","","LERT",36.65,-6.35,25.6,1973,2015
84510,99999,"JEREZ","SP","","LEJR",36.745,-6.06,28.3,1973,2015
84820,99999,"MALAGA","SP","","LEMG",36.675,-4.499,15.8,1973,2015
84870,99999,"ALMERIA","SP","","LEAM",36.844,-2.37,21.3,1931,2015
84950,99999,"GIBRALTAR","GI","","LXGB",36.151,-5.35,4.6,1958,2015
85010,99999,"FLORES","PO","","LPFL",39.455,-31.131,34.1,1978,2015
85050,99999,"HORTA","PO","","LPHR",38.52,-28.716,36,1976,2015
85060,99999,"HORTA (ACORES)","PO","","",38.517,-28.633,62,1931,2015
85090,99999,"LAJES","PO","","LPLA",38.762,-27.091,54.9,1947,2015
85120,99999,"PONTA DELGADA","PO","","LPPD",37.741,-25.698,78.9,1931,2015
85150,99999,"SANTA MARIA","PO","","LPAZ",36.971,-25.171,93.9,1944,2015
85210,99999,"FUNCHAL/S.CATARINA","PO","","LPFU",32.683,-16.767,58,1948,2015
85220,99999,"FUNCHAL","PO","","",32.633,-16.9,56,1931,2015
85240,99999,"PORTO SANTO","PO","","LPPS",33.073,-16.35,103.9,1948,2015
85360,99999,"LISBOA","PO","","LPPT",38.781,-9.136,114,1931,2015
85450,99999,"PORTO","PO","","LPPR",41.248,-8.681,69.5,1931,2015
85540,99999,"FARO","PO","","LPFR",37.014,-7.966,7.3,1948,2015
85620,99999,"BEJA","PO","","LPBJ",38.079,-7.932,193.9,1948,2015
85680,99999,"PENHAS DOURADAS","PO","","",40.417,-7.55,1388,1948,2015
85710,99999,"PORTALEGRE","PO","","",39.283,-7.417,590,1948,2015
85750,99999,"BRAGANCA","PO","","LPBG",41.86,-6.706,690.4,1948,2015
100330,99999,"MEIERWIK","GM","","ETGG",54.833,9.5,33,1936,2015
100370,99999,"SCHLESWIG","GM","","ETNS",54.459,9.516,21.3,1942,2015
100380,99999,"HOHN","GM","","ETNH",54.312,9.538,11.9,1973,2015
101260,99999,"WITTMUNDHAFEN","GM","","ETNT",53.548,7.667,7.9,1973,2015
101360,99999,"NORDHOLZ","GM","","ETMN",53.768,8.659,22.6,1946,2015
101470,99999,"HAMBURG","GM","","EDDH",53.63,9.988,16.2,1928,2015
101560,99999,"LUBECK BLANKENSEE","GM","","EDHL",53.805,10.719,16.2,1973,2015
102240,99999,"BREMEN","GM","","EDDW",53.048,8.787,4.3,1929,2015
102340,99999,"ROTENBURG","GM","","ETGQ",53.133,9.35,61,1942,2015
102460,99999,"FASSBERG","GM","","ETHS",52.919,10.198,74.7,1936,2015
103040,99999,"MEPPEN (MIL)","GM","","ETWM",52.717,7.317,26,1976,2015
103060,99999,"RHEINE BENTLAGE","GM","","ETHE",52.291,7.387,39.3,1940,2015
103210,99999,"DIEPHOLZ","GM","","ETND",52.586,8.341,38.7,1973,2015
103340,99999,"WUNSTORF","GM","","ETNW",52.457,9.427,57,1937,2015
103350,99999,"BUCKEBURG","GM","","ETHB",52.279,9.082,70.1,1973,2015
103380,99999,"HANNOVER","GM","","EDDV",52.461,9.685,55.8,1926,2015
103430,99999,"CELLE","GM","","ETHC",52.591,10.022,39.3,1936,2015
103480,99999,"BRAUNSCHWEIG WOLFSBURG","GM","","EDVE",52.319,10.556,89.9,1931,2015
103820,99999,"TEGEL","GM","","EDDT",52.56,13.288,37.2,1936,2015
103850,99999,"SCHONEFELD","GM","","EDDB",52.38,13.523,47.9,1940,2015
104000,99999,"DUSSELDORF","GM","","EDDL",51.289,6.767,44.8,1931,2015
104160,99999,"DORTMUND","GM","","EDLW",51.518,7.612,129.5,1931,2015
104260,99999,"PADERBORN LIPPSTADT","GM","","EDLP",51.614,8.616,213.1,1938,2015
104390,99999,"FRITZLAR","GM","","ETHF",51.115,9.286,172.5,1938,2015
104690,99999,"LEIPZIG HALLE","GM","","EDDP",51.424,12.236,141.7,1929,2015
104880,99999,"DRESDEN","GM","","EDDC",51.133,13.767,230.1,1931,2015
105020,99999,"NORVENICH","GM","","ETNN",50.831,6.658,117.7,1973,2015
105130,99999,"KOLN BONN","GM","","EDDK",50.866,7.143,92,1931,2015
105540,99999,"ERFURT","GM","","EDDE",50.98,10.958,315.8,1931,2015
106070,99999,"SPANGDAHLEM AB","GM","","ETAD",49.973,6.693,364.8,1953,2015
106130,99999,"BUCHEL","GM","","ETSB",50.174,7.063,477.9,1973,2015
106140,99999,"RAMSTEIN AB","GM","","ETAR",49.437,7.6,238.1,1952,2015
106160,99999,"FRANKFURT HAHN","GM","","EDFH",49.949,7.264,502.6,1953,2015
106330,99999,"WIESBADEN AAF","GM","","ETOU",50.05,8.325,140.5,1938,2015
106370,99999,"FRANKFURT MAIN","GM","","EDDF",50.026,8.543,110.9,1926,2015
106850,99999,"HOF PLAUEN","GM","","EDQM",50.289,11.855,597.4,1931,2015
106870,99999,"GRAFENWOHR AAF","GM","","ETIC",49.699,11.94,415.4,1939,2015
107080,99999,"SAARBRUCKEN","GM","","EDDR",49.215,7.11,322.5,1935,2015
107290,99999,"MANNHEIM CITY","GM","","EDFM",49.473,8.514,94.2,1947,2015
107380,99999,"STUTTGART","GM","","EDDS",48.69,9.222,388.9,1939,2015
107430,99999,"NIEDERSTETTEN","GM","","ETHN",49.392,9.958,468.2,1973,2015
107450,99999,"SCHWABISCH HALL","GM","","EDTY",49.118,9.784,399.6,1936,2015
107520,99999,"ILLESHEIM AHP","GM","","ETIK",49.474,10.388,328.6,1939,2015
107550,99999,"ANSBACH AHP","GM","","ETEB",49.308,10.639,467,1939,2015
107630,99999,"NURNBERG","GM","","EDDN",49.499,11.078,318.8,1931,2015
107750,99999,"HOHENFELS AAF","GM","","ETIH",49.218,11.836,443.5,1961,2015
108050,99999,"LAHR","GM","","EDTL",48.369,7.828,155.8,1973,2015
108370,99999,"LAUPHEIM","GM","","ETHL",48.22,9.91,538.3,1973,2015
108520,99999,"AUGSBURG","GM","","EDMA",48.425,10.932,461.8,1937,2015
108530,99999,"NEUBURG","GM","","ETSN",48.711,11.212,380.7,1938,2015
108560,99999,"LECHFELD","GM","","ETSL",48.186,10.861,555.3,1928,2015
108570,99999,"LANDSBERG LECH","GM","","ETSA",48.071,10.906,623,1938,2015
108600,99999,"INGOLSTADT MANCHING","GM","","ETSI",48.716,11.534,366.4,1939,2015
108660,99999,"MUNCHEN","GM","","EDDM",48.354,11.786,453.2,1929,2015
108690,99999,"ERDING","GM","","ETSE",48.322,11.949,461.8,1937,2015
109350,99999,"FRIEDRICHSHAFEN","GM","","EDNY",47.671,9.511,416.7,1929,2015
109470,99999,"ALLGAU","GM","","EDJA",47.989,10.24,629.1,1937,2015
109540,99999,"ALTENSTADT","GM","","ETHA",47.833,10.867,760,1932,2015
110010,99999,"WOLFSEGG","AU","","",48.1,13.667,615.6,1973,2015
110080,99999,"ROHRBACH","AU","","",48.567,14,602,1976,2015
110100,99999,"LINZ","AU","","LOWL",48.233,14.188,298.1,1934,2015
110120,99999,"KREMSMUENSTER","AU","","",48.05,14.133,389,1973,2015
110180,99999,"AMSTETTEN","AU","","",48.1,14.9,271,1965,2015
110200,99999,"STIFT ZWETTL","AU","","",48.617,15.2,506,1979,2015
110210,99999,"LITSCHAU","AU","","",48.95,15.033,556.7,1976,2015
110220,99999,"RETZ","AU","","",48.767,15.95,323,1965,2015
110240,99999,"JAUERLING","AU","","",48.333,15.333,959,1973,2015
110270,99999,"STOCKERAU","AU","","",48.4,16.2,205.1,1933,2015
110300,99999,"TULLN","AU","","LOXT",48.321,16.112,175.3,1940,2015
110320,99999,"POYSDORF","AU","","",48.667,16.633,207,1973,2015
110350,99999,"WIEN/HOHE WARTE","AU","","",48.25,16.367,200,1931,2015
110360,99999,"SCHWECHAT","AU","","LOWW",48.11,16.57,182.9,1952,2015
111010,99999,"BREGENZ","AU","","",47.5,9.75,441.9,1965,2015
111050,99999,"FELDKIRCH","AU","","",47.267,9.617,439,1966,2015
111120,99999,"LANDECK","AU","","",46.983,10.317,806.5,1965,2015
111160,99999,"REUTTE/TIROL","AU","","",47.5,10.75,870,1979,2015
111190,99999,"SEEFELD","AU","","",47.317,11.183,1183.7,1967,2015
111200,99999,"INNSBRUCK","AU","","LOWI",47.26,11.344,580.9,1931,2015
111260,99999,"PATSCHERKOFEL","AU","","",47.217,11.467,2254,1967,2015
111300,99999,"KUFSTEIN","AU","","",47.583,12.167,493,1965,2015
111350,99999,"HAHNENKAMM/EHRENBACHHOEHE","AU","","",47.417,12.367,1763.6,1973,2015
111360,99999,"KRIMML","AU","","",47.233,12.183,1010.7,1973,2015
111400,99999,"LOFER","AU","","",47.583,12.7,629,1973,2015
111440,99999,"ZELL AM SEE (AUT)","AU","","LOWZ",47.333,12.8,763,1966,2015
111460,99999,"SONNBLICK","AU","","",47.05,12.95,3109,1939,2015
111470,99999,"RADSTADT","AU","","",47.383,13.45,861,1973,2015
111480,99999,"ST. MICHAEL IM LUNGAU","AU","","",47.1,13.65,1094,1973,2015
111490,99999,"OBERTAUERN","AU","","",47.25,13.567,1744.9,1973,2015
111500,99999,"SALZBURG","AU","","LOWS",47.793,13.004,430.1,1938,2015
111520,99999,"MATTSEE","AU","","",47.983,13.1,503,1973,2015
111530,99999,"MONDSEE","AU","","",47.85,13.367,491,1973,2015
111540,99999,"GMUNDEN","AU","","",47.9,13.8,428,1973,2015
111550,99999,"FEUERKOGEL","AU","","",47.817,13.717,1620.1,1965,2015
111570,99999,"AIGEN/ENNSTAL (MIL)","AU","","LOXA",47.533,14.133,649,1938,2015
111610,99999,"PRAEBICHL","AU","","",47.517,14.95,1214.2,1973,2015
111650,99999,"ZELTWEG","AU","","LOXZ",47.203,14.744,676.7,1938,2015
111700,99999,"LUNZ","AU","","",47.85,15.067,615,1973,2015
111750,99999,"BRUCK/MUR","AU","","",47.417,15.267,482,1966,2015
111800,99999,"RAX/SEILBAHN-BERGSTATION","AU","","",47.717,15.783,1554,1977,2015
111820,99999,"WIENER NEUSTADT","AU","","",47.833,16.217,285,1934,2015
111850,99999,"MOENICHKIRCHEN","AU","","",47.517,16.033,994,1965,2015
111900,99999,"EISENSTADT","AU","","",47.85,16.533,189.3,1973,2015
111920,99999,"KLEINZICKEN","AU","","",47.2,16.333,267,1978,2015
112040,99999,"LIENZ","AU","","",46.833,12.817,666,1938,2015
112120,99999,"VILLACHERALPE","AU","","",46.6,13.667,2160,1965,2015
112130,99999,"VILLACH","AU","","",46.617,13.883,494,1976,2015
112140,99999,"PREITENEGG","AU","","",46.933,14.917,1035,1965,2015
112200,99999,"NEUMARKT","AU","","",47.067,14.417,870,1976,2015
112250,99999,"WEITENSFELD","AU","","",46.85,14.183,712.4,1976,2015
112290,99999,"ST. ANDRAE I.L.","AU","","",46.767,14.833,404,1977,2015
112310,99999,"KLAGENFURT(CIV/MIL)","AU","","LOWK",46.65,14.333,452,1931,2015
112400,99999,"GRAZ","AU","","LOWG",46.991,15.44,339.9,1934,2015
112410,99999,"SCHOECKL","AU","","",47.2,15.467,1442,1976,2015
114060,99999,"CHEB","EZ","","",50.067,12.383,490,1937,2015
114140,99999,"KARLOVY VARY","EZ","","LKKV",50.203,12.915,606.2,1939,2015
114230,99999,"PRIMDA","EZ","","",49.667,12.683,747.4,1940,2015
114380,99999,"TUSIMICE","EZ","","",50.383,13.333,326.2,1978,2015
114480,99999,"PLZEN LINE","EZ","","LKLN",49.675,13.275,362.1,1939,2015
114500,99999,"PLZEN-MIKULKA","EZ","","",49.767,13.383,371.5,1937,2015
114570,99999,"CHURANOV","EZ","","",49.067,13.617,1122.2,1973,2015
114640,99999,"MILESOVKA","EZ","","",50.55,13.933,842.6,1931,2015
114870,99999,"KOCELOVICE","EZ","","",49.467,13.833,521.9,1975,2015
115020,99999,"USTI NAD LABEM","EZ","","",50.683,14.033,378.6,1978,2015
115180,99999,"RUZYNE","EZ","","LKPR",50.101,14.26,380.1,1929,2015
115190,99999,"PRAHA-KARLOV / KLEMENTINUM","EZ","","",50.067,14.433,254,1931,2015
115200,99999,"PRAHA-LIBUS","EZ","","",50,14.45,303.7,1973,2015
115670,99999,"PRAHA-KBELY","EZ","","",50.117,14.533,285.5,1939,2015
116030,99999,"LIBEREC","EZ","","",50.767,15.017,401.5,1937,2015
116360,99999,"KOSTELNI MYSLOVA","EZ","","",49.167,15.433,572.4,1952,2015
116430,99999,"PEC POD SNEZKOU","EZ","","",50.7,15.733,820.6,1931,2015
116590,99999,"PRIBYSLAV","EZ","","",49.583,15.767,536.4,1937,2015
116790,99999,"USTI NAD ORLICI","EZ","","",49.983,16.417,404.9,1973,2015
116830,99999,"SVRATOUCH","EZ","","",49.733,16.033,740.4,1977,2015
116980,99999,"KUCHAROVICE","EZ","","",48.883,16.083,338.7,1978,2015
117100,99999,"LUKA","EZ","","",49.65,16.95,515.6,1977,2015
117230,99999,"TURANY","EZ","","LKTB",49.151,16.694,237.1,1939,2015
117660,99999,"CERVENA","EZ","","",49.783,17.55,753.3,1978,2015
117740,99999,"HOLESOV","EZ","","LKHO",49.317,17.567,224,1953,2015
117820,99999,"MOSNOV","EZ","","LKMT",49.696,18.111,257.3,1952,2015
117870,99999,"LYSA HORA","EZ","","",49.55,18.45,1326.8,1973,2015
118160,99999,"M R STEFANIK","LO","","LZIB",48.17,17.213,132.9,1940,2015
118260,99999,"PIESTANY","LO","","LKPP",48.617,17.833,164,1937,2015
118410,99999,"ZILINA/HRICOV","LO","","",49.233,18.617,311,1975,2015
118550,99999,"NITRA","LO","","",48.283,18.133,136,1937,2015
118580,99999,"HURBANOVO","LO","","",47.867,18.2,124,1973,2015
118670,99999,"PRIEVIDZA","LO","","",48.767,18.6,261,1978,2015
118800,99999,"DUDINCE","LO","","",48.167,18.867,140,1978,2015
119030,99999,"SLIAC","LO","","LKSL",48.65,19.15,315,1952,2015
119160,99999,"CHOPOK","LO","","",48.983,19.6,2007,1973,2015
119180,99999,"LIESEK","LO","","",49.367,19.683,693,1933,2015
119270,99999,"LUCENEC","LO","","LZLU",48.333,19.733,214,1978,2015
119300,99999,"LOMNICKY STIT","LO","","",49.2,20.217,2635,1952,2015
119330,99999,"KAMENICA NAD CIROCHOU","LO","","LZKC",48.933,22,177,1978,2015
119340,99999,"TATRY","LO","","LZTT",49.074,20.241,718.1,1957,2015
119380,99999,"TELGART","LO","","",48.85,20.183,906,1978,2015
119680,99999,"KOSICE","LO","","LKKZ",48.667,21.217,231,1952,2015
119760,99999,"STROPKOV  TISINEC","LO","","",49.217,21.65,217,1978,2015
119930,99999,"KAMENICA NAD CIROCHOU","LO","","",48.933,22,178,1973,2015
121000,99999,"KOLOBRZEG","PL","","",54.183,15.583,5,1935,2015
121050,99999,"KOSZALIN","PL","","EPKO",54.2,16.15,34,1952,2015
121150,99999,"USTKA","PL","","",54.583,16.867,11,1937,2015
121200,99999,"LEBA","PL","","",54.75,17.533,6,1973,2015
121250,99999,"LEBORK","PL","","",54.55,17.75,41,1953,2015
121350,99999,"HEL","PL","","",54.6,18.817,3,1955,2015
121500,99999,"LECHA WALESY","PL","","EPGD",54.378,18.466,149,1931,2015
121600,99999,"ELBLAG-MILEJEWO","PL","","",54.167,19.433,43,1933,2015
121850,99999,"KETRZYN","PL","","",54.067,21.367,110,1952,2015
121950,99999,"SUWALKI","PL","","",54.133,22.95,186,1931,2015
122000,99999,"SWINOUJSCIE","PL","","",53.917,14.233,5,1933,2015
122050,99999,"SZCZECIN","PL","","EPSD",53.4,14.617,7,1928,2015
122100,99999,"RESKO-SMOLSKO","PL","","",53.767,15.4,52.9,1973,2015
122120,99999,"SWIDWIN","PL","","EPSN",53.791,15.826,117.3,1940,2015
122150,99999,"SZCZECINEK","PL","","",53.717,16.683,144,1973,2015
122250,99999,"NADARZYCE","PL","","EPNA",53.45,16.5,129,1931,2015
122350,99999,"CHOJNICE","PL","","",53.717,17.55,172,1941,2015
122500,99999,"TORUN","PL","","",53.05,18.583,72,1934,2015
122700,99999,"MLAWA","PL","","",53.1,20.35,149,1934,2015
122720,99999,"OLSZTYN","PL","","",53.767,20.417,137,1935,2015
122800,99999,"MIKOLAJKI","PL","","",53.783,21.583,132,1962,2015
122850,99999,"OSTROLEKA","PL","","",53.083,21.567,97,1941,2015
122950,99999,"BIALYSTOK","PL","","",53.1,23.167,151,1931,2015
123000,99999,"GORZOW WLKP","PL","","",52.75,15.283,73,1952,2015
123100,99999,"SLUBICE","PL","","",52.35,14.6,24,1952,2015
123300,99999,"LAWICA","PL","","EPPO",52.421,16.826,93.9,1931,2015
123450,99999,"KOLO","PL","","",52.2,18.667,117,1952,2015
123600,99999,"PLOCK","PL","","",52.583,19.733,109,1935,2015
123750,99999,"OKECIE","PL","","EPWA",52.166,20.967,110.3,1928,2015
123850,99999,"SIEDLCE","PL","","",52.25,22.25,155,1973,2015
123990,99999,"TERESPOL","PL","","",52.067,23.617,137,1973,2015
124000,99999,"ZIELONA GORA","PL","","",51.933,15.533,192,1931,2015
124150,99999,"LEGNICA","PL","","",51.2,16.2,124,1937,2015
124240,99999,"STRACHOWICE","PL","","EPWR",51.103,16.886,123.1,1939,2015
124350,99999,"KALISZ","PL","","",51.783,18.083,140,1952,2015
124550,99999,"WIELUN","PL","","",51.217,18.567,201,1939,2015
124690,99999,"SULEJOW","PL","","",51.35,19.867,189,1973,2015
124880,99999,"KOZIENICE","PL","","",51.567,21.55,126,1975,2015
124900,99999,"DEBLIN","PL","","EPDE",51.551,21.894,119.5,1934,2015
124950,99999,"LUBLIN RADAWIEC","PL","","",51.217,22.4,240,1931,2015
124970,99999,"WLODAWA","PL","","",51.55,23.533,179,1973,2015
125000,99999,"JELENIA GORA","PL","","",50.9,15.8,344,1933,2015
125100,99999,"SNIEZKA","PL","","",50.733,15.733,1613,1952,2015
125200,99999,"KLODZKO","PL","","",50.433,16.617,357,1952,2015
125300,99999,"OPOLE","PL","","",50.617,17.967,163,1973,2015
125400,99999,"RACIBORZ","PL","","",50.05,18.2,206,1953,2015
125500,99999,"CZESTOCHOWA","PL","","",50.817,19.1,295,1940,2015
125600,99999,"KATOWICE","PL","","EPKM",50.233,19.033,284,1934,2015
125660,99999,"BALICE","PL","","EPKK",50.078,19.785,241.1,1931,2015
125700,99999,"KIELCE-SUKOW","PL","","",50.817,20.7,261,1934,2015
125750,99999,"TARNOW","PL","","",50.033,20.983,209,1939,2015
125800,99999,"JASIONKA","PL","","EPRZ",50.11,22.019,205.7,1954,2015
125850,99999,"SANDOMIERZ","PL","","",50.7,21.717,218,1940,2015
125950,99999,"ZAMOSC","PL","","",50.7,23.25,213,1940,2015
126000,99999,"BIELSKO-BIALA","PL","","",49.8,19,399,1939,2015
126250,99999,"ZAKOPANE","PL","","",49.3,19.967,857,1934,2015
126500,99999,"KASPROWY WIERCH","PL","","",49.233,19.983,1989,1940,2015
126600,99999,"NOWY SACZ","PL","","",49.617,20.7,295,1973,2015
126900,99999,"LESKO","PL","","",49.467,22.35,422,1973,2015
126950,99999,"PRZEMYSL","PL","","",49.8,22.767,280,1934,2015
127720,99999,"MISKOLC","HU","","LHMC",48.083,20.767,236,1952,2015
128050,99999,"SOPRON","HU","","",47.683,16.6,239,1936,2015
128120,99999,"SZOMBATHELY","HU","","LHSY",47.267,16.633,221,1936,2015
128220,99999,"GYOR","HU","","LHPR",47.617,17.783,129,1973,2015
128250,99999,"PAPA","HU","","LHPA",47.364,17.501,152,1973,2015
128390,99999,"FERIHEGY","HU","","LHBP",47.437,19.256,150.9,1952,2015
128430,99999,"BUDAPEST/PESTSZENTLORINC","HU","","",47.433,19.183,139,1973,2015
128510,99999,"KEKESTETO","HU","","",47.867,20.017,1015,1934,2015
128600,99999,"SZOLNOK","HU","","LHSN",47.123,20.236,98.1,1952,2015
128700,99999,"EGER","HU","","",47.9,20.383,218,1936,2015
128820,99999,"DEBRECEN","HU","","LHDC",47.489,21.615,110,1931,2015
128920,99999,"NYIREGYHAZA","HU","","LHNY",47.984,21.692,103,1973,2015
129100,99999,"SZENTGOTTHARD/FARKASFA","HU","","",46.917,16.317,313,1974,2015
129150,99999,"ZALAEGERSZEG/ANDRASHIDA","HU","","",46.867,16.8,180,1977,2015
129250,99999,"NAGYKANIZSA","HU","","",46.45,16.967,141,1973,2015
129300,99999,"KAPOSVAR","HU","","LHKV",46.383,17.833,145,1936,2015
129350,99999,"SIOFOK","HU","","LHSK",46.917,18.05,109,1973,2015
129420,99999,"PECS SOUTH","HU","","LHPP",45.991,18.241,304.8,1936,2015
129500,99999,"PAKS","HU","","",46.583,18.85,98,1980,2015
129600,99999,"BAJA","HU","","",46.183,19.017,113,1973,2015
129700,99999,"KECSKEMET","HU","","LHKE",46.918,19.749,114.6,1973,2015
129820,99999,"SZEGED (AUT)","HU","","LHUD",46.25,20.1,83,1936,2015
129920,99999,"BEKESCSABA","HU","","LHBC",46.683,21.167,90,1936,2015
130670,99999,"PALIC","RI","","",46.1,19.767,105,1973,2015
131160,99999,"RIJEKA","HR","","LYRI",45.217,14.57,84.7,1973,2015
131680,99999,"NOVI SAD RIMSKI SANCEVI","RI","","",45.333,19.85,87,1936,2015
131740,99999,"KIKINDA","RI","","",45.85,20.467,82,1973,2015
131830,99999,"VRSAC","RI","","LYVR",45.147,21.31,84.1,1973,2015
132420,99999,"BANJA LUKA","BK","","LQBK",44.941,17.298,121.9,1936,2015
132620,99999,"LOZNICA","RI","","",44.55,19.233,122,1973,2015
132690,99999,"VALJEVO","RI","","",44.317,19.917,177,1973,2015
132720,99999,"BEOGRAD","RI","","LYBE",44.818,20.309,102.1,1945,2015
132740,99999,"BEOGRAD","RI","","",44.8,20.467,132,1952,2015
132790,99999,"SMEDEREVSKA PALANKA","RI","","",44.367,20.95,122,1973,2015
132850,99999,"VELIKO GRADISTE","RI","","",44.75,21.517,84,1936,2015
132890,99999,"CRNI VRH","RI","","",44.117,21.95,1039,1973,2015
132950,99999,"NEGOTIN","RI","","",44.233,22.55,44,1973,2015
133480,99999,"MOSTAR","BK","","LQMO",43.283,17.846,47.5,1936,2015
133530,99999,"SARAJEVO","BK","","LQSA",43.825,18.331,520.6,1936,2015
133630,99999,"PLEVLJA","MJ","","",43.35,19.35,788,1936,2015
133670,99999,"ZLATIBOR","RI","","",43.733,19.717,1029,1973,2015
133760,99999,"KRALJEVO","RI","","LYKV",43.7,20.7,217,1936,2015
133840,99999,"CUPRIJA","RI","","",43.933,21.383,125,1973,2015
133880,99999,"NIS","RI","","LYNI",43.337,21.854,197.5,1936,2015
133890,99999,"LESKOVAC","RI","","",42.983,21.95,232,1973,2015
133970,99999,"DIMITROVGRAD","RI","","",43.017,22.75,450,1973,2015
134570,99999,"TIVAT","MJ","","LYTV",42.405,18.723,6.1,1976,2015
134590,99999,"NIKSIC","MJ","","",42.767,18.95,647,1975,2015
134620,99999,"PODGORICA / GOLUBOVCI","MJ","","LYTI",42.367,19.25,33,1952,2015
134890,99999,"VRANJE","RI","","",42.55,21.917,434,1979,2015
134930,99999,"KRIVA PALANKA","MK","","",42.2,22.333,696,1973,2015
135770,99999,"LAZAROPOLE","MK","","",41.533,20.7,1321,1973,2015
135780,99999,"OHRID","MK","","LWOH",41.18,20.742,705,1973,2015
135830,99999,"BITOLA","MK","","",41.05,21.367,589,1973,2015
135850,99999,"PRILEP","MK","","",41.333,21.567,674,1936,2015
135860,99999,"SKOPJE","MK","","LWSK",41.962,21.621,238,1928,2015
135910,99999,"STIP","MK","","",41.75,22.183,327,1973,2015
135920,99999,"DEMIR KAPIJA","MK","","",41.417,22.25,126,1973,2015
136000,99999,"SHKODRA","AL","","",42.1,19.533,43,1956,2015
136100,99999,"KUKES","AL","","",42.033,20.417,354,1973,2015
136110,99999,"DURRES","AL","","",41.3,19.45,12,1973,2015
136150,99999,"TIRANA RINAS","AL","","LATI",41.415,19.721,38.4,1956,2015
136190,99999,"PESHKOPI","AL","","",41.683,20.433,653,1973,2015
136220,99999,"VLORE","AL","","",40.467,19.483,5,1960,2015
136230,99999,"SAZAN ISLAND","AL","","",40.5,19.283,240,1933,2015
136240,99999,"QYTETI STALIN","AL","","",40.8,19.9,33,1973,2015
136250,99999,"GJIROKASTRA","AL","","",40.083,20.15,194,1956,2015
136290,99999,"KORCA","AL","","",40.6,20.767,899,1956,2015
150040,99999,"SIGHETUL MARMATIEI","RO","","",47.933,23.9,276,1965,2015
150070,99999,"RADAUTI","RO","","",47.833,25.9,391,1973,2015
150100,99999,"SATU MARE","RO","","LRSM",47.703,22.886,126.2,1952,2015
150140,99999,"TAUTII MAGHERAUS","RO","","LRBM",47.658,23.47,184.1,1974,2015
150150,99999,"OCNA SUGATAG","RO","","",47.733,23.95,503,1974,2015
150200,99999,"BOTOSANI","RO","","",47.733,26.65,163,1957,2015
150230,99999,"STEFAN CEL MARE","RO","","LRSV",47.688,26.354,419.1,1973,2015
150330,99999,"IEZER","RO","","",47.6,24.65,1786,1973,2015
150420,99999,"SACUIENI","RO","","",47.35,22.1,113,1973,2015
150440,99999,"SUPURU DE JOS","RO","","",47.45,22.783,161,1973,2015
150560,99999,"COTNARI","RO","","",47.367,26.933,289,1973,2015
150630,99999,"ZALAU","RO","","",47.183,23.05,294,1973,2015
150690,99999,"POIANA STAMPEI","RO","","",47.317,25.133,920,1973,2015
150730,99999,"TARGU NEAMT","RO","","",47.217,26.383,388,1973,2015
150800,99999,"ORADEA","RO","","LROD",47.025,21.903,141.7,1936,2015
150830,99999,"DEJ","RO","","",47.133,23.9,236,1974,2015
150850,99999,"BISTRITA","RO","","",47.15,24.517,367,1966,2015
150900,99999,"IASI","RO","","LRIA",47.178,27.621,121,1936,2015
150950,99999,"BOROD","RO","","",46.983,22.6,317,1973,2015
151070,99999,"TOPLITA","RO","","",46.933,25.367,688,1973,2015
151080,99999,"CEAHLAU TOACA","RO","","",46.983,25.95,1898,1964,2015
151090,99999,"PIATRA NEAMT","RO","","",46.917,26.383,361,1973,2015
151110,99999,"ROMAN","RO","","",46.967,26.917,217,1935,2015
151130,99999,"NEGRESTI","RO","","",46.85,27.45,131,1973,2015
151170,99999,"HOLOD","RO","","",46.783,22.117,165,1974,2015
151190,99999,"VLADEASA 1800","RO","","",46.767,22.8,1837,1973,2015
151200,99999,"CLUJ NAPOCA","RO","","LRCL",46.785,23.686,315.8,1936,2015
151230,99999,"SARMASU","RO","","",46.75,24.167,398,1973,2015
151270,99999,"JOSENI","RO","","",46.7,25.517,751,1973,2015
151360,99999,"CHISINEU-CRIS","RO","","",46.533,21.533,96,1973,2015
151430,99999,"TURDA","RO","","",46.583,23.783,428,1974,2015
151450,99999,"VIDRASAU","RO","","LRTM",46.468,24.413,293.5,1952,2015
151500,99999,"BACAU","RO","","LRBC",46.522,26.91,185,1952,2015
151540,99999,"VASLUI","RO","","",46.65,27.717,117,1974,2015
151600,99999,"STEI","RO","","",46.533,22.467,279,1973,2015
151620,99999,"CAMPENI","RO","","",46.367,23.05,611,1974,2015
151630,99999,"BAISOARA","RO","","",46.533,23.317,1356,1973,2015
151680,99999,"ODORHEIUL SECUIESC","RO","","",46.3,25.3,525,1973,2015
151700,99999,"MIERCUREA CIUC","RO","","",46.367,25.733,662,1966,2015
151820,99999,"GURAHONT","RO","","",46.267,22.333,177,1973,2015
151890,99999,"DUMBRAVENI","RO","","",46.233,24.6,319,1973,2015
151940,99999,"TARGU OCNA","RO","","",46.267,26.65,243,1973,2015
151970,99999,"BARLAD","RO","","",46.233,27.65,173,1966,2015
151990,99999,"SANNICOLAU MARE","RO","","",46.067,20.6,86.2,1973,2015
152000,99999,"ARAD","RO","","LRAR",46.177,21.262,107.3,1936,2015
152040,99999,"VARADIA DE MURES","RO","","",46.017,22.15,157,1973,2015
152060,99999,"TEBEA","RO","","",46.167,22.667,264,1973,2015
152090,99999,"BLAJ","RO","","",46.183,23.933,334,1973,2015
152150,99999,"BARAOLT","RO","","",46.083,25.6,509,1973,2015
152170,99999,"TARGU SECUIESC","RO","","",46,26.133,569,1973,2015
152190,99999,"ADJUD","RO","","",46.1,27.167,102,1974,2015
152300,99999,"DEVA","RO","","",45.867,22.9,231,1952,2015
152310,99999,"SEBES ALBA","RO","","",45.967,23.533,272.2,1973,2015
152350,99999,"FAGARAS","RO","","",45.833,24.933,429,1966,2015
152380,99999,"SFANTU GHEORGHE GOVASNA","RO","","",45.867,25.817,526,1974,2015
152470,99999,"TRAIAN VUIA","RO","","LRTR",45.81,21.338,106.1,1952,2015
152540,99999,"PALTINIS SIBIU","RO","","",45.65,23.933,1454,1973,2015
152600,99999,"SIBIU","RO","","LRSB",45.786,24.091,456,1936,2015
152610,99999,"INTORSURA BUZAULUI","RO","","",45.683,26.017,710,1973,2015
152620,99999,"LACAUTI","RO","","",45.817,26.383,1785,1973,2015
152650,99999,"TECUCI","RO","","",45.85,27.417,61,1936,2015
152700,99999,"LUGOJ","RO","","",45.683,21.933,123,1974,2015
152770,99999,"BOITA","RO","","",45.65,24.267,519,1973,2015
152800,99999,"VARFU OMU","RO","","",45.45,25.45,2509,1952,2015
152890,99999,"BANLOC","RO","","",45.383,21.133,83,1973,2015
152920,99999,"CARANSEBES","RO","","LRCS",45.42,22.253,264,1965,2015
152960,99999,"PETROSANI","RO","","",45.417,23.383,599,1973,2015
153000,99999,"BRASOV-GHIMBAV","RO","","",45.7,25.533,538,1973,2015
153010,99999,"FUNDATA","RO","","",45.433,25.267,1383,1973,2015
153020,99999,"PREDEAL","RO","","",45.5,25.583,1093,1934,2015
153070,99999,"RAMNICU SARAT","RO","","",45.383,27.05,154,1974,2015
153100,99999,"GALATI","RO","","",45.483,28.033,71,1935,2015
153150,99999,"SEMENIC","RO","","",45.183,22.05,1433,1973,2015
153160,99999,"CUNTU","RO","","",45.3,22.517,1450,1973,2015
153170,99999,"TARCU","RO","","",45.283,22.533,2186,1973,2015
153190,99999,"VOINEASA","RO","","",45.417,23.967,575,1973,2015
153200,99999,"PARANG","RO","","",45.383,23.467,1550,1973,2015
153240,99999,"CAMPULUNG MUSCEL","RO","","",45.283,25.033,680,1974,2015
153250,99999,"SINAIA-1500","RO","","",45.35,25.5,1510,1973,2015
153280,99999,"PATARLAGELE","RO","","",45.317,26.367,291,1974,2015
153350,99999,"CATALOI","RO","","LRTC",45.062,28.714,61,1973,2015
153360,99999,"GORGOVA","RO","","",45.183,29.167,4,1974,2015
153380,99999,"ORAVITA","RO","","",45.033,21.683,310,1973,2015
153400,99999,"TARGU JIU","RO","","",45.033,23.267,205.5,1966,2015
153410,99999,"APA NEAGRA","RO","","",45,22.867,251,1973,2015
153440,99999,"POLOVRAGI","RO","","",45.183,23.817,532,1974,2015
153450,99999,"MORARESTI","RO","","",45,24.533,550,1973,2015
153460,99999,"RAMNICU VALCEA","RO","","",45.1,24.367,239,1937,2015
153470,99999,"CURTEA DE ARGES","RO","","",45.167,24.667,449,1973,2015
153490,99999,"CAMPINA","RO","","",45.283,25.75,463,1973,2015
153500,99999,"BUZAU","RO","","",45.15,26.817,97,1936,2015
153600,99999,"SULINA","RO","","",45.167,29.733,9,1936,2015
153640,99999,"BOZOVICI","RO","","",44.917,22,252,1974,2015
153690,99999,"TARGU LOGRESTI","RO","","",44.883,23.7,265,1973,2015
153730,99999,"PITESTI","RO","","",44.85,24.817,315,1966,2015
153750,99999,"TARGOVISTE","RO","","",44.933,25.433,297.7,1973,2015
153770,99999,"PLOIESTI","RO","","",44.95,26,177,1966,2015
153870,99999,"SFANTU GHEORGHE DELTA","RO","","",44.9,29.6,2,1973,2015
153880,99999,"MOLDOVA VECHE","RO","","",44.717,21.633,83,1974,2015
153950,99999,"DRAGASANI","RO","","",44.667,24.233,281,1973,2015
154020,99999,"URZICENI","RO","","",44.717,26.65,61,1973,2015
154050,99999,"GRIVITA","RO","","",44.75,27.3,51,1966,2015
154060,99999,"HARSOVA","RO","","",44.683,27.95,38,1974,2015
154080,99999,"CORUGEA","RO","","",44.733,28.35,220,1973,2015
154090,99999,"JURILOVCA","RO","","",44.767,28.883,38,1973,2015
154100,99999,"DROBETA TURNU SEVERIN","RO","","",44.633,22.633,80,1936,2015
154120,99999,"BACLES","RO","","",44.483,23.117,313,1973,2015
154160,99999,"STOLNICI","RO","","",44.567,24.8,210,1973,2015
154190,99999,"TITU","RO","","",44.65,25.583,160,1974,2015
154200,99999,"AUREL VLAICU","RO","","LRBS",44.503,26.102,90.5,1931,2015
154210,99999,"HENRI COANDA","RO","","LROP",44.571,26.085,95.7,1973,2015
154220,99999,"BUCURESTI FILARET","RO","","",44.417,26.1,83.5,1979,2015
154440,99999,"FETESTI","RO","","",44.367,27.85,61,1973,2015
154500,99999,"CRAIOVA","RO","","LRCV",44.318,23.889,190.8,1936,2015
154550,99999,"VIDELE","RO","","",44.283,25.533,107,1974,2015
154600,99999,"CALARASI","RO","","",44.2,27.35,20,1936,2015
154620,99999,"MEDGIDIA","RO","","",44.25,28.267,72,1973,2015
154650,99999,"BAILESTI","RO","","",44.017,23.333,58,1973,2015
154690,99999,"CARACAL","RO","","",44.1,24.367,107,1973,2015
154700,99999,"ROSIORII DE VEDE","RO","","",44.1,24.983,103,1966,2015
154790,99999,"ADAMCLISI","RO","","",44.083,27.967,160,1973,2015
154800,99999,"CONSTANTA","RO","","",44.217,28.65,14,1936,2015
154810,99999,"MIHAIL KOGALNICEANU","RO","","LRCK",44.362,28.488,107.6,1973,2015
154820,99999,"CALAFAT","RO","","",43.983,22.95,63,1973,2015
154890,99999,"ALEXANDRIA","RO","","",43.983,25.35,76,1973,2015
154900,99999,"TURNU-MAGURELE","RO","","",43.75,24.883,31,1936,2015
154910,99999,"GIURGIU","RO","","",43.883,25.95,24,1973,2015
154940,99999,"BECHET","RO","","",43.783,23.95,40,1974,2015
154990,99999,"MANGALIA","RO","","",43.817,28.583,9,1964,2015
155020,99999,"VIDIN","BU","","",43.983,22.85,595,1973,2015
155250,99999,"LOVETCH","BU","","",43.15,24.7,221,1975,2015
155520,99999,"VARNA","BU","","LBWN",43.232,27.825,70.1,1936,2015
156000,99999,"MOURGASH","BU","","",42.833,23.667,1692,1973,2015
156050,99999,"DRAGOMAN","BU","","",42.933,22.933,716,1973,2015
156140,99999,"SOFIA","BU","","LBSF",42.695,23.406,531,1931,2015
156150,99999,"MUSSALA (TOP/SOMMET)","BU","","",42.183,23.583,2927,1935,2015
156250,99999,"PLOVDIV","BU","","LBPD",42.068,24.851,182,1939,2015
156400,99999,"SLIVEN *","BU","","",42.667,26.333,257,1953,2015
156550,99999,"BURGAS","BU","","LBBG",42.57,27.515,41.1,1953,2015
157120,99999,"SANDANSKI","BU","","",41.55,23.267,207,1952,2015
157300,99999,"KURDJALI","BU","","",41.65,25.383,331,1957,2015
160080,99999,"S. VALENTINO ALLA MUTA","IT","","",46.75,10.533,1461,1967,2015
160200,99999,"BOLZANO","IT","","LIPB",46.46,11.326,240.5,1965,2015
160210,99999,"ROLLE PASS","IT","","LIVR",46.3,11.783,2006,1973,2015
160220,99999,"PAGANELLA MOUNTAIN","IT","","LIVP",46.15,11.033,2129,1973,2015
160330,99999,"DOBBIACO","IT","","LIVD",46.733,12.217,1226,1973,2015
160360,99999,"AVIANO AB","IT","","LIPA",46.032,12.596,117,1966,2015
160400,99999,"TARVISIO","IT","","LIVO",46.5,13.583,778,1965,2015
160450,99999,"RIVOLTO","IT","","LIPI",45.979,13.049,54.6,1958,2015
160520,99999,"PIAN ROSA (MTN TOP)","IT","","LIMH",45.933,7.7,3488,1965,2015
160590,99999,"TORINO CASELLE","IT","","LIMF",45.201,7.65,301.4,1964,2015
160610,99999,"TORINO/BRIC CROCE","IT","","LIMK",45.033,7.733,710,1973,2015
160640,99999,"CAMERI","IT","","LIMN",45.53,8.669,178.6,1966,2015
160660,99999,"MALPENSA","IT","","LIMC",45.631,8.728,233.8,1965,2015
160760,99999,"BERGAMO ORIO AL SERIO","IT","","LIME",45.674,9.704,238.4,1966,2015
160800,99999,"LINATE","IT","","LIML",45.445,9.277,107.6,1931,2015
160840,99999,"PIACENZA","IT","","LIMS",44.913,9.723,139,1966,2015
160880,99999,"GHEDI","IT","","LIPL",45.432,10.268,101.5,1966,2015
160900,99999,"VILLAFRANCA","IT","","LIPX",45.396,10.889,72.8,1945,2015
160940,99999,"VICENZA","IT","","LIPT",45.573,11.53,39,1966,2015
160950,99999,"PADOVA","IT","","LIPU",45.4,11.85,14,1973,2015
160980,99999,"ISTRANA","IT","","LIPS",45.685,12.083,41.8,1966,2015
160990,99999,"TREVISO","IT","","LIPH",45.648,12.194,18,1966,2015
161050,99999,"VENEZIA TESSERA","IT","","LIPZ",45.505,12.352,2.1,1961,2015
161080,99999,"RONCHI DEI LEGIONARI","IT","","LIPQ",45.828,13.472,11.3,1973,2015
161100,99999,"TRIESTE","IT","","LIVT",45.65,13.75,20,1932,2015
161150,99999,"MALANOTTE MOUNTAIN","IT","","LIMY",44.25,7.8,1742,1973,2015
161190,99999,"GIOVI PASS","IT","","LIMV",44.633,8.933,475,1973,2015
161200,99999,"GENOVA SESTRI","IT","","LIMJ",44.412,8.842,4,1928,2015
161220,99999,"ALBENGA","IT","","LIMG",44.051,8.127,45.1,1973,2015
161240,99999,"CISA PASS","IT","","LIMT",44.433,9.933,1040,1973,2015
161250,99999,"SARZANA/LUNI","IT","","LIQW",44.083,9.983,10,1973,2015
161340,99999,"CIMONE MOUNTAIN","IT","","LIVC",44.2,10.7,2173,1965,2015
161380,99999,"FERRARA (AUT)","IT","","LIPF",44.833,11.617,10,1973,2015
161400,99999,"BOLOGNA","IT","","LIPE",44.535,11.289,37.5,1964,2015
161460,99999,"POINT MARINA/RAVENN","IT","","LIVM",44.45,12.3,6,1966,2015
161470,99999,"FORLI","IT","","LIPK",44.195,12.07,29.6,1973,2015
161480,99999,"CERVIA","IT","","LIPC",44.224,12.307,5.5,1973,2015
161490,99999,"RIMINI","IT","","LIPR",44.02,12.612,12.5,1945,2015
161530,99999,"CAPE MELE","IT","","LIMU",43.95,8.167,221,1965,2015
161580,99999,"PISA","IT","","LIRP",43.684,10.393,1.8,1944,2015
161680,99999,"MOUNT ARGENTARIO","IT","","LIQO",42.383,11.167,632,1973,2015
161700,99999,"FIRENZE","IT","","LIRQ",43.81,11.205,43.9,1931,2015
161720,99999,"AREZZO","IT","","LIQB",43.467,11.85,249,1978,2015
161790,99999,"FRONTONE","IT","","LIVF",43.517,12.733,574,1973,2015
161810,99999,"PERUGIA","IT","","LIRZ",43.096,12.513,211.2,1967,2015
161910,99999,"FALCONARA","IT","","LIPY",43.616,13.362,14.9,1945,2015
161970,99999,"MONTE CALAMITA","IT","","LIRX",42.733,10.4,397,1973,2015
162040,99999,"RADICOFANI","IT","","LIQR",42.9,11.767,918,1973,2015
162060,99999,"GROSSETO","IT","","LIRS",42.76,11.072,4.6,1944,2015
162140,99999,"CIVITAVECCHIA","IT","","",42.017,11.817,4,1945,2015
162160,99999,"VITERBO","IT","","LIRV",42.43,12.064,301.8,1944,2015
162190,99999,"TERMINILLO MOUNTAIN","IT","","LIRK",42.467,12.983,1875,1965,2015
162210,99999,"RIETI","IT","","LIQN",42.417,12.85,389,1973,2015
162240,99999,"VIGNA DI VALLE(MIL)","IT","","LIRB",42.083,12.217,270,1973,2015
162300,99999,"PESCARA","IT","","LIBP",42.432,14.181,14.6,1965,2015
162320,99999,"TERMOLI","IT","","LIBT",42,15,44,1973,2015
162340,99999,"GUIDONIA","IT","","LIRG",41.99,12.741,88.1,1966,2015
162350,99999,"URBE","IT","","LIRU",41.952,12.499,16.8,1973,2015
162390,99999,"CIAMPINO","IT","","LIRA",41.799,12.595,130.1,1951,2015
162420,99999,"FIUMICINO","IT","","LIRF",41.804,12.251,4.6,1965,2015
162430,99999,"LATINA","IT","","LIRL",41.542,12.909,28.3,1944,2015
162440,99999,"FROSINONE (IT-AFB)","IT","","LIRH",41.633,13.3,181,1973,2015
162450,99999,"PRATICA DI MARE","IT","","LIRE",41.659,12.445,12.5,1966,2015
162520,99999,"CAMPOBASSO","IT","","LIBS",41.567,14.65,807,1965,2015
162530,99999,"GRAZZANISE","IT","","LIRM",41.061,14.082,8.8,1944,2015
162580,99999,"MONTE S. ANGELO","IT","","",41.7,15.95,848,1973,2015
162600,99999,"GINA LISA","IT","","LIBF",41.433,15.533,81,1957,2015
162610,99999,"AMENDOLA","IT","","LIBA",41.541,15.718,55.8,1944,2015
162630,99999,"TREVICO","IT","","LIRT",41.05,15.233,1093,1973,2015
162700,99999,"BARI","IT","","LIBD",41.133,16.767,53.9,1943,2015
162800,99999,"PONZA ISLAND","IT","","LIQZ",40.917,12.95,185,1965,2015
162890,99999,"NAPOLI/CAPODICHINO","IT","","LIRN",40.85,14.3,72,1951,2015
162940,99999,"CAPRI ISLAND","IT","","LIQC",40.55,14.25,269,1973,2015
163100,99999,"CAPE PALINURO","IT","","LIQK",40.017,15.283,185,1964,2015
163120,99999,"GIOIA DEL COLLE","IT","","LIBV",40.768,16.933,361.8,1944,2015
163160,99999,"LATRONICO","IT","","",40.083,16.017,896,1974,2015
163200,99999,"CASALE","IT","","LIBR",40.658,17.947,14.3,1943,2015
163240,99999,"GROTTAGLIE","IT","","LIBG",40.518,17.403,65.5,1943,2015
163250,99999,"MARINA DI GINOSA","IT","","LIBH",40.433,16.883,12,1967,2015
163320,99999,"LECCE","IT","","LIBN",40.239,18.133,47.5,1943,2015
163370,99999,"BONIFATI (CAPE)","IT","","LIBW",39.583,15.883,485,1965,2015
163440,99999,"MONTE SCURO","IT","","",39.333,16.4,1677,1973,2015
163500,99999,"CROTONE","IT","","LIBC",38.997,17.08,158.8,1957,2015
163600,99999,"SANTA MARIA DI LEUC","IT","","LIBY",39.817,18.35,112,1965,2015
163620,99999,"LAMEZIA TERME","IT","","LICA",38.905,16.242,11.9,1977,2015
164000,99999,"USTICA ISLAND","IT","","LICU",38.7,13.183,251,1957,2015
164050,99999,"PALERMO","IT","","LICJ",38.176,13.091,19.8,1964,2015
164200,99999,"MESSINA","IT","","LICF",38.2,15.55,51,1931,2015
164220,99999,"REGGIO CALABRIA","IT","","LICR",38.071,15.652,29.3,1973,2015
164290,99999,"TRAPANI BIRGI","IT","","LICT",37.911,12.488,7.3,1965,2015
164340,99999,"PRIZZI","IT","","LICX",37.717,13.433,1035,1973,2015
164500,99999,"ENNA","IT","","LICE",37.567,14.283,965,1973,2015
164530,99999,"GELA","IT","","LICL",37.083,14.217,33,1943,2015
164590,99999,"CATANIA/SIGONELLA","IT","","LICZ",37.4,14.917,22,1943,2015
164600,99999,"CATANIA FONTANAROSSA","IT","","LICC",37.467,15.066,11.9,1943,2015
164700,99999,"PANTELLERIA","IT","","LICG",36.817,11.969,193.5,1943,2015
164800,99999,"COZZO SPADARO","IT","","LICO",36.683,15.133,51,1966,2015
164900,99999,"LAMPEDUSA","IT","","LICD",35.498,12.618,21.3,1966,2015
165200,99999,"ALGHERO","IT","","LIEA",40.632,8.291,26.5,1957,2015
165220,99999,"CAPE CACCIA","IT","","LIEH",40.567,8.167,205,1975,2015
165310,99999,"OLBIA COSTA SMERALDA","IT","","LIEO",40.899,9.518,11.3,1969,2015
165390,99999,"CAPE FRASCA","IT","","LIEF",39.75,8.467,92,1966,2015
165410,99999,"PERDASDEFOGU","IT","","LIEP",39.667,9.433,645,1973,2015
165420,99999,"CAPE S. LORENZO","IT","","LIEL",39.5,9.617,22,1973,2015
165460,99999,"DECIMOMANNU","IT","","LIED",39.354,8.972,30.5,1966,2015
165500,99999,"CAPE BELLAVISTA","IT","","LIEB",39.933,9.717,156,1966,2015
165600,99999,"ELMAS","IT","","LIEE",39.251,9.054,4,1943,2015
165640,99999,"CAPE CARBONARA","IT","","LIEC",39.1,9.517,118,1973,2015
165970,99999,"LUQA","MT","","LMML",35.857,14.478,91.4,1931,2015
166060,99999,"SERRAI","GR","","",41.067,23.567,35,1932,2015
166130,99999,"FLORINA","GR","","",40.783,21.4,662,1932,2015
166140,99999,"ARISTOTELIS","GR","","LGKA",40.446,21.282,660.5,1980,2015
166220,99999,"MAKEDONIA","GR","","LGTS",40.52,22.971,6.7,1960,2015
166270,99999,"DIMOKRITOS","GR","","LGAL",40.856,25.956,7.3,1932,2015
166320,99999,"FILIPPOS","GR","","LGKZ",40.286,21.841,627.6,1938,2015
166410,99999,"IOANNIS KAPODISTRIAS INTL","GR","","LGKR",39.602,19.912,1.8,1932,2015
166420,99999,"IOANNINA (AIRPORT)","GR","","LGIO",39.7,20.817,483,1932,2015
166430,99999,"AKTIO","GR","","LGPZ",38.925,20.765,3.4,1973,2015
166480,99999,"LARISA","GR","","LGLR",39.65,22.466,73.5,1932,2015
166500,99999,"LIMNOS","GR","","LGLM",39.917,25.236,4.3,1977,2015
166650,99999,"NEA ANCHIALOS","GR","","LGBL",39.22,22.794,25.3,1965,2015
166670,99999,"MITILINI","GR","","LGMT",39.057,26.598,18.3,1960,2015
166750,99999,"LAMIA","GR","","",38.883,22.433,13.8,1932,2015
166820,99999,"ANDRAVIDA","GR","","LGAD",37.921,21.293,16.8,1965,2015
166840,99999,"SKIROS","GR","","LGSY",38.968,24.487,13.4,1949,2015
166850,99999,"KEFALLINIA","GR","","LGKF",38.12,20.5,18,1965,2015
166870,99999,"ARAXOS","GR","","LGRX",38.151,21.426,14,1942,2015
166990,99999,"TANAGRA","GR","","LGTG",38.34,23.565,147.8,1965,2015
167100,99999,"TRIPOLIS","GR","","LGTP",37.531,22.404,644,1932,2015
167150,99999,"TATOI","GR","","LGTT",38.109,23.784,239.3,1966,2015
167160,99999,"ATHINAI","GR","","LGAT",37.882,23.735,21,1949,2015
167180,99999,"ELEFSIS","GR","","LGEL",38.064,23.556,43.6,1965,2015
167230,99999,"SAMOS","GR","","LGSM",37.69,26.912,5.8,1978,2015
167260,99999,"KALAMATA","GR","","LGKL",37.068,22.026,7.9,1973,2015
167320,99999,"NAXOS","GR","","",37.1,25.367,9.8,1938,2015
167340,99999,"METHONI","GR","","",36.833,21.7,53.2,1934,2015
167380,99999,"MILOS","GR","","",36.733,24.433,168.4,1932,2015
167430,99999,"KITHIRA","GR","","LGKC",36.274,23.017,318.5,1933,2015
167460,99999,"SOUDA","GR","","LGSA",35.532,24.15,149.4,1932,2015
167490,99999,"DIAGORAS","GR","","LGRP",36.405,28.086,5.8,1935,2015
167540,99999,"NIKOS KAZANTZAKIS","GR","","LGIR",35.34,25.18,35.1,1932,2015
167570,99999,"SITIA","GR","","",35.2,26.1,28,1964,2015
167590,99999,"TYMBAKION (AIRPORT)","GR","","",35,24.75,7,1942,2015
170200,99999,"BARTIN","TU","","",41.633,32.333,33,1951,2015
170220,99999,"ZONGULDAK","TU","","LTAS",41.45,31.8,137,1957,2015
170240,99999,"INEBOLU","TU","","",41.983,33.783,64,1973,2015
170260,99999,"SINOP","TU","","LTCM",42.033,35.167,32,1957,2015
170300,99999,"SAMSUN","TU","","",41.283,36.3,4,1951,2015
170340,99999,"GIRESUN","TU","","",40.917,38.383,37,1973,2015
170380,99999,"TRABZON","TU","","LTCG",40.995,39.79,31.7,1951,2015
170420,99999,"HOPA","TU","","",41.4,41.433,33,1963,2015
170500,99999,"EDIRNE","TU","","",41.667,26.567,51,1955,2015
170560,99999,"TEKIRDAG","TU","","",40.983,27.55,3,1963,2015
170590,99999,"KUMKOY","TU","","",41.25,29.033,30,1973,2015
170600,99999,"ATATURK","TU","","LTBA",40.977,28.821,49.7,1945,2015
170610,99999,"SARIYER","TU","","",41.133,29.067,58,1965,2015
170670,99999,"GOLCUK/DUMLUPINAR","TU","","",40.667,29.833,18,1963,2015
170700,99999,"BOLU","TU","","",40.733,31.6,743,1973,2015
170740,99999,"KASTAMONU","TU","","",41.367,33.783,800,1963,2015
170820,99999,"MERZIFON","TU","","LTAP",40.829,35.522,535.8,1950,2015
170840,99999,"CORUM","TU","","",40.55,34.95,776,1973,2015
170900,99999,"SIVAS","TU","","LTAR",39.814,36.903,1595.9,1963,2015
170920,99999,"ERZINCAN","TU","","LTCD",39.71,39.527,1153.1,1950,2015
170960,99999,"ERZURUM","TU","","LTCE",39.957,41.17,1756.6,1950,2015
170980,99999,"KARS","TU","","LTCF",40.562,43.115,1795,1963,2015
171000,99999,"IGDIR","TU","","",39.917,44.05,858,1963,2015
171100,99999,"GOKCEADA","TU","","LTFK",40.183,25.9,72,1973,2015
171120,99999,"CANAKKALE","TU","","LTBH",40.138,26.427,7,1963,2015
171150,99999,"BANDIRMA","TU","","LTBG",40.318,27.978,51.8,1950,2015
171160,99999,"BURSA","TU","","LTBE",40.183,29.067,100,1973,2015
171170,99999,"KUTAHYA(TAFB)","TU","","LTBN",39.433,30.017,921,1973,2015
171240,99999,"ESKISEHIR","TU","","LTBI",39.784,30.582,786.7,1950,2015
171270,99999,"AKINCI","TU","","",40.067,32.567,840,1973,2015
171280,99999,"ESENBOGA","TU","","LTAC",40.128,32.995,952.5,1967,2015
171290,99999,"ETIMESGUT","TU","","LTAD",39.95,32.689,808.6,1945,2015
171300,99999,"ANKARA/CENTRAL","TU","","",39.95,32.883,891,1974,2015
171500,99999,"BALIKESIR","TU","","LTBF",39.619,27.926,103.6,1950,2015
171600,99999,"KIRSEHIR","TU","","",39.15,34.167,1007,1963,2015
171620,99999,"GEMEREK","TU","","",39.183,36.067,1171,1973,2015
171700,99999,"VAN","TU","","LTCI",38.468,43.332,1670.3,1957,2015
171800,99999,"DIKILI","TU","","",39.067,26.883,3,1973,2015
171840,99999,"AKHISAR","TU","","LTBT",38.809,27.834,80.2,1963,2015
171880,99999,"USAK","TU","","LTBO",38.683,29.4,919,1963,2015
171900,99999,"AFYON","TU","","LTAH",38.726,30.601,1008.9,1963,2015
171950,99999,"ERKILET","TU","","LTAU",38.77,35.495,1055.5,1966,2015
172000,99999,"ERHAC","TU","","LTAT",38.435,38.091,862,1950,2015
172005,99999,"TOPEL","TU","","LTBQ",40.735,30.083,55.5,1977,2015
172020,99999,"ELAZIG","TU","","LTCA",38.607,39.291,892.1,1973,2015
172050,99999,"TATVAN","TU","","",38.483,42.3,1665,1975,2015
172100,99999,"SIIRT","TU","","",37.917,41.95,896,1963,2015
172180,99999,"CIGLI","TU","","LTBL",38.513,27.01,4.9,1950,2015
172190,99999,"ADNAN MENDERES","TU","","LTBJ",38.292,27.157,125.6,1980,2015
172191,99999,"GAZIEMIR","TU","","LTBK",38.319,27.159,132,1973,2015
172200,99999,"IZMIR/GUZELYALI","TU","","",38.433,27.167,29,1950,2015
172370,99999,"DENIZLI","TU","","",37.783,29.083,425,1973,2015
172400,99999,"ISPARTA","TU","","LTBM",37.785,30.582,990.6,1963,2015
172440,99999,"KONYA","TU","","LTAN",37.979,32.562,1030.5,1950,2015
172480,99999,"EREGLI/KONYA","TU","","",37.5,34.05,1044,1973,2015
172600,99999,"OGUZELI","TU","","LTAJ",36.947,37.479,705.6,1973,2015
172700,99999,"SANLIURFA","TU","","LTCH",37.094,38.847,452,1963,2015
172800,99999,"DIYARBAKIR","TU","","LTCC",37.894,40.201,686.1,1950,2015
172850,99999,"HAKKARI","TU","","",37.567,43.767,1728,1973,2015
172900,99999,"IMSIK","TU","","LTBV",37.14,27.67,61.6,1963,2015
172920,99999,"MUGLA","TU","","",37.217,28.367,646,1963,2015
173000,99999,"ANTALYA","TU","","LTAI",36.899,30.8,53.9,1951,2015
173300,99999,"SILIFKE","TU","","",36.383,33.933,15,1963,2015
173400,99999,"MERSIN","TU","","",36.8,34.633,3,1974,2015
173500,33308,"ADANA/INCIRLIK","TU","","LTAG",37,35.417,66,1973,2015
173520,99999,"ADANA","TU","","LTAF",36.982,35.28,19.8,1945,2015
173700,99999,"ISKENDERUN","TU","","LTAK",36.573,36.154,7.6,1951,2015
173725,99999,"HATAY","TU","","LTDA",36.35,36.283,267,1976,2015
176000,99999,"PAFOS INTL","CY","","LCPH",34.718,32.486,12.5,1949,2015
176010,99999,"AKROTIRI","CY","","LCRA",34.59,32.988,23.2,1960,2015
176090,99999,"LARNACA","CY","","LCLK",34.875,33.625,2.4,1977,2015
200460,99999,"POLARGMO IM. E.T. KRENKELJA","RS","","",80.617,58.05,22,1957,2015
200690,99999,"OSTROV VIZE","RS","","",79.483,76.983,10,1955,2015
200870,99999,"GOLOMJANNYJ","RS","","",79.55,90.567,8,1932,2015
201070,99999,"BARENTSBURG","RS","","",78.067,14.25,75,1952,2015
202920,99999,"GMO IM.E.K. FEDOROVA","RS","","",77.717,104.3,15,1933,2015
203530,99999,"MYS ZHELANIYA","RS","","",76.95,68.55,8,1932,2015
204710,99999,"IZVESTIJ TSIK","RS","","",75.95,82.95,11.9,1955,2015
204760,99999,"MYS STERLEGOVA","RS","","",75.417,88.9,11,1955,2015
206670,99999,"IM. M.V. POPOVA","RS","","",73.333,70.05,7,1936,2015
206740,99999,"OSTROV DIKSON","RS","","",73.5,80.4,47,1932,2015
207440,99999,"MALYE KARMAKULY","RS","","",72.367,52.7,19,1948,2015
208710,99999,"SOPOCHNAYA KARGA","RS","","",71.883,82.7,5.9,1955,2015
208910,99999,"HATANGA","RS","","",71.983,102.467,33,1937,2015
209460,99999,"IM E K FEDOROVA","RS","","",70.45,59.083,12.2,1932,2015
209670,99999,"SEYAHA","RS","","",70.167,72.517,17.8,1957,2015
209780,99999,"KARAUL","RS","","",70.083,83.167,28.7,1955,2015
209820,99999,"VOLOCHANKA","RS","","",70.967,94.5,40,1937,2015
214320,99999,"OSTROV KOTEL'NYJ","RS","","",76,137.867,8,1936,2015
215350,99999,"SANNIKOVA","RS","","",74.667,138.9,14.6,1955,2015
216360,99999,"KIGILYAH","RS","","",73.167,139.867,24.7,1955,2015
217110,99999,"UST' OLENEK","RS","","",73,119.867,14.9,1955,2015
217210,99999,"IM YU A HABAROVA","RS","","",72.4,126.35,19.6,1955,2015
218020,99999,"SASKYLAH","RS","","",71.967,114.083,18,1957,2015
218130,99999,"TYUMYATI","RS","","",71.917,123.567,26.6,1959,2015
218230,99999,"YAKUTSK","RS","","UEEE",62.093,129.771,99.1,1955,2015
218240,99999,"TIKSI","RS","","UE38",71.698,128.903,9.1,1933,2015
219080,99999,"DZALINDA","RS","","",70.133,113.967,62,1959,2015
219210,99999,"KJUSJUR","RS","","",70.683,127.4,33,1948,2015
219310,99999,"JUBILEJNAJA","RS","","",70.767,136.217,24,1948,2015
219460,99999,"CHOKURDAH","RS","","",70.617,147.883,61,1955,2015
219780,99999,"VAL' KARKAY","RS","","",70.083,170.933,5.8,1948,2015
219820,99999,"OSTROV VRANGELYA","RS","","",70.983,178.65,4,1934,2015
220030,99999,"VAIDA GUBA (BAY)","RS","","",69.933,31.983,8,1959,2015
220040,99999,"NIKEL","RS","","",69.4,30.233,92,1953,2015
220120,99999,"TSYP-NAVOLOK","RS","","",69.733,33.1,11,1959,2015
220280,99999,"TERIBERKA","RS","","",69.2,35.117,30,1959,2015
221000,99999,"VERKHOV'E R LOTTA","RS","","",68.533,28.917,115,1960,2015
221010,99999,"YANISKOSKI","RS","","",68.967,28.783,101,1959,2015
221050,99999,"NIVANKYUL","RS","","",68.35,30.733,90,1959,2015
221060,99999,"PADUN","RS","","",68.6,31.8,63,1959,2015
221130,99999,"MURMANSK","RS","","ULMM",68.782,32.751,81.1,1936,2015
221270,99999,"LOVOZERO","RS","","",68,35.033,162,1947,2015
221400,99999,"SVYATOJ NOS","RS","","",68.15,39.767,12,1959,2015
221650,99999,"KANIN NOS","RS","","",68.65,43.3,49,1946,2015
221930,99999,"BUGRINO","RS","","",68.783,49.3,7,1959,2015
222120,99999,"MONCHEGORSK","RS","","",67.933,32.917,132,1959,2015
222170,99999,"KANDALAKSHA","RS","","",67.15,32.35,25,1932,2015
222350,99999,"KRASNOSCEL'E","RS","","",67.35,37.05,156,1946,2015
222490,99999,"KANEVKA","RS","","",67.133,39.667,151,1955,2015
222710,99999,"SHOJNA","RS","","",67.883,44.15,18,1959,2015
222820,99999,"MYS MIKULKIN","RS","","",67.8,46.667,6,1953,2015
222920,99999,"INDIGA","RS","","",67.683,48.683,4,1959,2015
223050,99999,"ZASHEEK","RS","","",66.25,31.117,119,1963,2015
223120,99999,"KOVDA","RS","","",66.7,32.883,18,1946,2015
223240,99999,"UMBA","RS","","",66.683,34.35,40,1959,2015
223340,99999,"KASHKARANTSY","RS","","",66.333,36.017,3.5,1932,2015
223490,99999,"PJALICA","RS","","",66.183,39.533,9,1937,2015
223610,99999,"MORZHOVEC","RS","","",66.717,42.483,16.2,1959,2015
223650,99999,"ABRAMOVSKIJ MAJAK","RS","","",66.383,43.25,21,1959,2015
223830,99999,"NIZHNYAYA PESHA","RS","","",66.733,47.717,13.5,1959,2015
224080,99999,"KALEVALA","RS","","",65.217,31.167,120,1946,2015
224130,99999,"ENGOZERO","RS","","",65.783,33.933,80,1973,2015
224290,99999,"SOLOVKI","RS","","",65.033,35.7,7.4,1959,2015
224380,99999,"ZIZGIN","RS","","",65.2,36.817,17,1955,2015
224460,99999,"ZIMNEGORSKIJ MAJAK","RS","","",65.467,39.733,77,1959,2015
224560,99999,"KEPINO","RS","","",65.383,41.883,68.6,1959,2015
224710,99999,"MEZEN'","RS","","",65.867,44.217,19,1932,2015
224810,99999,"MOSEEVO","RS","","",65.767,46.2,42.2,1959,2015
225250,99999,"RAZNAVOLOK","RS","","",64.567,34.917,9,1948,2015
225290,99999,"KOLEZMA","RS","","",64.233,35.883,3,1959,2015
225410,99999,"UNSKIJ MAJAK","RS","","",64.833,38.4,5,1959,2015
225460,99999,"SEVERODVINSK","RS","","",64.55,39.767,7.9,1959,2015
225500,99999,"TALAGI","RS","","ULAA",64.6,40.717,18.9,1931,2015
225510,99999,"MUD'JUG","RS","","",64.85,40.283,3,1959,2015
225590,99999,"HOLMOGORY","RS","","",64.217,41.667,12,1959,2015
225630,99999,"PINEGA","RS","","",64.7,43.383,31,1946,2015
225730,99999,"LESUKONSKOE","RS","","",64.9,45.767,71,1959,2015
225830,99999,"KOJNAS","RS","","",64.75,47.65,64,1932,2015
226020,99999,"REBOLY","RS","","",63.833,30.817,182,1946,2015
226190,99999,"PADANY","RS","","",63.267,33.417,128,1959,2015
226210,99999,"SEGEZA","RS","","",63.767,34.283,112,1946,2015
226410,99999,"ONEGA","RS","","",63.9,38.117,13,1946,2015
226480,99999,"TURCASOVO","RS","","",63.117,39.233,34,1959,2015
226560,99999,"EMECK","RS","","",63.483,41.8,18,1959,2015
226710,99999,"KARPOGORY","RS","","",64.017,44.45,65.1,1959,2015
226760,99999,"SURA","RS","","",63.583,45.633,62,1936,2015
226860,99999,"VENDINGA","RS","","",63.45,47.917,80,1959,2015
226950,99999,"KOSLAN","RS","","",63.45,48.9,158,1959,2015
227170,99999,"SUOYARVI","RS","","",62.1,32.383,156,1959,2015
227210,99999,"MEDVEZEGORSK","RS","","",62.917,34.433,81,1948,2015
227270,99999,"KONDOPOGA","RS","","",62.167,34.3,38,1959,2015
227490,99999,"KONEVO","RS","","",62.133,39.3,101.3,1959,2015
227620,99999,"DVINSKIJ BEREZNIK","RS","","",62.817,42.783,34,1959,2015
227680,99999,"SHENKURSK","RS","","",62.1,42.9,45,1932,2015
227780,99999,"VERHNJAJA TOJMA","RS","","",62.233,45.017,58,1959,2015
227980,99999,"JARENSK","RS","","",62.167,49.117,92,1948,2015
228020,99999,"SORTAVALA","RS","","",61.717,30.717,19,1917,2015
228050,99999,"VALAAM","RS","","",61.367,30.883,16,1959,2015
228200,99999,"PETROZAVODSK","RS","","ULPB",61.817,34.267,110,1932,2015
228290,99999,"VOSNESEN'E","RS","","",61.017,35.483,41,1959,2015
228310,99999,"PUDOZ","RS","","",61.8,36.583,44,1947,2015
228370,99999,"VYTEGRA","RS","","",61.017,36.45,56,1932,2015
228450,99999,"KARGOPOL'","RS","","",61.5,38.933,126,1959,2015
228540,99999,"NJANDOMA","RS","","",61.667,40.183,233,1936,2015
228670,99999,"VEL'SK","RS","","",61.083,42.067,91,1932,2015
228690,99999,"SHANGALY","RS","","",61.133,43.35,117.2,1959,2015
228760,99999,"KRASNOBORSK","RS","","",61.55,45.933,59.6,1959,2015
228870,99999,"KOTLAS","RS","","ULKK",61.233,46.717,56,1948,2015
228910,99999,"SOSNOVO","RS","","",60.55,30.317,70,1959,2015
228920,99999,"VYBORG","RS","","",60.717,28.733,13,1906,2015
228970,99999,"OZERKI","FS","","",60.2,29,11,1959,2015
229120,99999,"OLONEC","RS","","",60.983,32.983,12,1959,2015
229130,99999,"LODEJNOE POLE","RS","","",60.717,33.55,23,1959,2015
229170,99999,"NOVAJA LADOGA","RS","","",60.117,32.317,9,1959,2015
229250,99999,"VINNICY","RS","","",60.633,34.783,111,1959,2015
229390,99999,"BELOZERSK","RS","","",60.017,37.75,131,1932,2015
229510,99999,"KONOSHA","RS","","",60.983,40.25,226.5,1959,2015
229540,99999,"VOZEGA","RS","","",60.467,40.2,202,1948,2015
229740,99999,"NYUKSENITSA","RS","","",60.417,44.217,136.5,1959,2015
229810,99999,"VELIKIJ USTJUG","RS","","",60.767,46.25,99,1932,2015
229960,99999,"OB'JACEVO","RS","","",60.367,49.65,152,1959,2015
230220,99999,"AMADERMA","RS","","ULDD",69.75,61.7,49,1948,2015
230320,99999,"MARESALE","RS","","",69.717,66.8,25,1932,2015
230580,99999,"ANTIPAJUTA","RS","","",69.083,76.85,3,1960,2015
230780,99999,"NORIL'SK","RS","","",69.333,88.25,64,1975,2015
231120,99999,"VARANDEY","RS","","",68.8,57.983,6.6,1959,2015
231140,99999,"MYS KONSTANTINOVSKIJ","RS","","",68.533,55.5,6.7,1959,2015
231740,99999,"POTAPOVO","RS","","",68.667,86.25,41,1957,2015
231790,99999,"SNEZHNOGORSK","RS","","",68.1,87.767,93.8,1973,2015
232050,99999,"NAR'JAN-MAR","RS","","",67.633,53.033,12,1932,2015
232190,99999,"HOSEDA-HARD","RS","","",67.033,59.4,83,1948,2015
232260,99999,"VORKUTA","RS","","",67.483,64.017,172,1953,2015
232420,99999,"NOVYJ PORT","RS","","",67.683,72.883,12,1932,2015
232560,99999,"TAZOVSKIJ","RS","","",67.467,78.733,8,1948,2015
232740,99999,"IGARKA","RS","","",67.467,86.567,28,1948,2015
233050,99999,"OKUNEV NOS","RS","","",66.25,52.55,22,1948,2015
233240,99999,"PETRUN'","RS","","",66.433,60.767,62,1959,2015
233300,99999,"SALEHARD","RS","","",66.533,66.667,16,1932,2015
233390,99999,"POLUJ","RS","","",66.033,68.683,35.9,1974,2015
233450,99999,"NYDA","RS","","",66.633,72.933,7,1957,2015
233830,99999,"AGATA","RS","","",66.883,93.467,278,1957,2015
234050,99999,"UST'-CIL'MA","RS","","",65.433,52.267,68,1932,2015
234120,99999,"UST'-USA","RS","","",65.967,56.917,78,1948,2015
234180,99999,"PECHORA","RS","","",65.133,57.133,53.2,1957,2015
234260,99999,"MUZHI","RS","","",65.483,64.717,19,1953,2015
234310,99999,"PITLYAR","RS","","",65.833,65.933,16.5,1953,2015
234450,99999,"NADYM","RS","","USMM",65.467,72.667,19,1956,2015
234530,99999,"URENGOJ","RS","","",65.95,78.4,23.7,1955,2015
234630,99999,"YANOV-STAN","RS","","",65.983,84.267,40,1957,2015
234650,99999,"KRASNOSEL' KUPSK","RS","","",65.7,82.45,24.7,1963,2015
234710,99999,"NIZHNEVARTOVSK","RS","","USNN",60.949,76.484,53.9,1969,2015
234720,99999,"TURUHANSK","RS","","",65.783,87.933,38,1932,2015
235030,99999,"IZHMA","RS","","",65.033,53.967,52,1959,2015
235180,99999,"UST'-SUGOR","RS","","",64.267,57.617,75,1948,2015
235270,99999,"SARAN-PAUL'","RS","","",64.283,60.883,29,1953,2015
235520,99999,"TARKO-SALE","RS","","",64.917,77.817,27,1957,2015
235780,99999,"VERESHCHAGINO","RS","","",64.233,87.567,30,1957,2015
235890,99999,"TUTONCHANY","RS","","",64.2,93.783,105,1969,2015
